id_site,nama_site,lokasi,kelurahan,kecamatan,nama_perusahaan,alamat_perusahaan_menara,latitude,longitude,type_menara,tower_height
120487109,CIGANITRI-STO-CIJAURA,"JL. CIGANITRI MUKTI, KEL.CIPAGALO, KEC.BOJONGSOANG, KAB.BANDUNG, JAWABARAT",-,-,PT.TOWER BERSAMA GROUP,"International Financial Centre 6th & 8th floor Jl. Jend. Sudirman Kav 22-23, Jakarta 12920",-6.96821,107.65646,GF/SST/31,31
120330109,STO-GEGERKALONG-SETRAMURNI,JL. SETRASARI II NO. 14 BANDUNG,-,-,PT.TOWER BERSAMA GROUP,"International Financial Centre 6th & 8th floor Jl. Jend. Sudirman Kav 22-23, Jakarta 12920",-6.87586,107.58801,GF/SST/42,42
121832109,SIMPANGLIMA-STEMBI,"RADIO DAHLIA, JL.BURANGRANG NO. 28 KEL.BURANGRANG KEC. LENGKONG BANDUNG",Burangrang,Lengkong,PT.TOWER BERSAMA GROUP,"International Financial Centre 6th & 8th floor Jl. Jend. Sudirman Kav 22-23, Jakarta 12920",-6.92581,107.61994,GF/SST/110,110
120484109,CICADAS-STO-BDG-TIMUR,"JL. A YANI NO. 635, KOTA BANDUNG",-,-,PT.TOWER BERSAMA GROUP,"International Financial Centre 6th & 8th floor Jl. Jend. Sudirman Kav 22-23, Jakarta 12920",-6.90792,107.6442,RT/Pole/18,18
120490109,STO-BDG-TIMUR-ATLAS-ANTAPANI,"JL. TERUSAN JALAN JAKARTA, NO. 109, ANTAPANI BANDUNG",Antapani Kulon,Antapani,PT.TOWER BERSAMA GROUP,"International Financial Centre 6th & 8th floor Jl. Jend. Sudirman Kav 22-23, Jakarta 12920",-6.91275,107.65535,RT/POLE/6,6
120478109,BABAKAN-SARI-SARI-INDAH,"JL. SETRAWANGI 4, RT 05, RW 15, KEL.BABAKAN SURABAYA, KEC. KIARA CONDONG BANDUNG",Babakan Surabaya,Kiaracondong,PT.TOWER BERSAMA GROUP,"International Financial Centre 6th & 8th floor Jl. Jend. Sudirman Kav 22-23, Jakarta 12920",-6.91883,107.65157,RT/MT /25,25
121915104,ANDIR,"JL. RAJAWALI TIMUR, NO. 167, RT/RW:01/09, KEL.DUNGUSCARIANG, KEC.ANDIR, BANDUNG",Dunguscariang,Andir,PT.TOWER BERSAMA GROUP,"International Financial Centre 6th & 8th floor Jl. Jend. Sudirman Kav 22-23, Jakarta 12920",-6.91511,107.58294,RT/SST/20,20
120712110,CIUMBULEUIT-CIDADAP,JL. CIGADUNG RAYA BARAT/ KAMPUNG CLPAHEUT KIDUL RT.03/RW.04 KEL.CIGADUNG KEC. CBEUNYLNG KALER KOTA BANDUNG,Cigadung,Cibeunying Kaler,PT.TOWER BERSAMA GROUP,"International Financial Centre 6th & 8th floor Jl. Jend. Sudirman Kav 22-23, Jakarta 12920",-6.87401,107.62329,GF/SST/42,42
120784109,KAUMKIDUL-PRMANGLAYANG,JL. DALEM KAUM NO. 85 RT 01 RW 08 KEL.CIKAWAO KEC. LENGKONG KOTA BANDUNG,Cikawao,Lengkong,PT.TOWER BERSAMA GROUP,"International Financial Centre 6th & 8th floor Jl. Jend. Sudirman Kav 22-23, Jakarta 12920",-6.92265,107.60941,RT/MT /25,25
120302109,BCAKOPO-KOPOLKRSEL,JL. LEUWIPANJANG 90 G RT01 RW04KOTA BANDUNG,-,-,PT.TOWER BERSAMA GROUP,"International Financial Centre 6th & 8th floor Jl. Jend. Sudirman Kav 22-23, Jakarta 12920",-6.94289,107.5957,RT/SST/25,25
120303109,TMNSURYAIDH-CIRANGRANG,JL CARINGIN NO. 113 RT/RW 008/003 DESA BABAKAN CIPARAY KEC. BABAKAN CIPARAY BANDUNG,Babakan Ciparay,Babakan Ciparay,PT.TOWER BERSAMA GROUP,"International Financial Centre 6th & 8th floor Jl. Jend. Sudirman Kav 22-23, Jakarta 12920",-6.94546,107.58213,RT/POLE/6,6
120082109,PURIASIHMD-NUANSAINDAHMG,JL. MERCURI TIMUR NO. 1KEL.MANJAHLEGA KEC. RANCASARIBANDUNG,Majahlega,Rancasari,PT.TOWER BERSAMA GROUP,"International Financial Centre 6th & 8th floor Jl. Jend. Sudirman Kav 22-23, Jakarta 12920",-6.94463,107.67005,GF/SST/30,30
120084109,STO-BDGTIMURMG-BMASIHSUKAPDMG,JL. CIMUNCANG GG. BLOK GEMPOL RT 04 RW 11KEL.PASIR LAYUNG KEC. CIBEUNYING KIDULBANDUNG,Pasirlayung,Cibeunying Kidul,PT.TOWER BERSAMA GROUP,"International Financial Centre 6th & 8th floor Jl. Jend. Sudirman Kav 22-23, Jakarta 12920",-6.90012,107.65112,GF/CMF/30,30
120279109,GRAHAKADIN-GATSULASWI,JL. PEJUANG 45 NO. 20A KOTA BANDUNG,-,-,PT.TOWER BERSAMA GROUP,"International Financial Centre 6th & 8th floor Jl. Jend. Sudirman Kav 22-23, Jakarta 12920",-6.92834,107.62656,RT/SST/25,25
120479109,BUDISARI-KARANG-SETRA/SUKAJADI,"KOMP. KOLAM RENANG KARANG SETRA, JL. SIRNAGALIH NO. 15, RT/RW. 05/02, KEL.CIPEDES, KEC. SUKAJADI, KOTA BANDUNG, JAWABARAT",Cipedes,Sukajadi,PT.TOWER BERSAMA GROUP,"International Financial Centre 6th & 8th floor Jl. Jend. Sudirman Kav 22-23, Jakarta 12920",-6.87984,107.59458,GF/SST/42,42
120468109,PASIRKALIKI-HTLPERDANA,JL. GARDU JATI NO. 85 KEL.KEBON JERUK KEC ANDIR BANDUNG,Kebon Jeruk,Andir,PT.TOWER BERSAMA GROUP,"International Financial Centre 6th & 8th floor Jl. Jend. Sudirman Kav 22-23, Jakarta 12920",-6.91737,107.59815,RT/POLE/6,6
120491109,RANCASAWO-PERUMADIPURA,JL. KEMAKMURAN 8 RT/RW 06/11 DESA DERWATI KEC. RANCASARI BANDUNG.,Derwati,Rancasari,PT.TOWER BERSAMA GROUP,"International Financial Centre 6th & 8th floor Jl. Jend. Sudirman Kav 22-23, Jakarta 12920",-6.95746,107.67954,GF/CMF/32,32
120482109,PERUMPARAKAN-RAYA-LOGAM,"JL. RAYA MARGA CINTA NO. 8, RT 01, RW 03, KEL.CIJAURA, KEC BUAH BATU, KOTA BANDUNG",Cijawura,Buahbatu,PT.TOWER BERSAMA GROUP,"International Financial Centre 6th & 8th floor Jl. Jend. Sudirman Kav 22-23, Jakarta 12920",-6.95473,107.64041,GF/SST/31,31
120485109,RCBOLANGIND-NUANSAINDAH,"JL. MAJAHLEGA, RT 06/RW 13, KEL.MAJAHLEGA, KEC RANCASARI, KOTA BANDUNG",Majahlega,Rancasari,PT.TOWER BERSAMA GROUP,"International Financial Centre 6th & 8th floor Jl. Jend. Sudirman Kav 22-23, Jakarta 12920",-6.95061,107.66948,GF/SST/31,31
120486109,ARCAMANIK-BINA-HARAPAN,"JL. CICUKANG RT/RW 03/06, KEL.CISARANTEN BINAHARAPAN, KEC. ARCAMANIK, KOTA BANDUNG.",Cisaranten Bina Harapan,Arcamanik,PT.TOWER BERSAMA GROUP,"International Financial Centre 6th & 8th floor Jl. Jend. Sudirman Kav 22-23, Jakarta 12920",-6.91333,107.68353,GF/SST/31,31
120785109,RSAU-LEDENG,KP.CIKADO RT 01 RW 11 KEL.CIMBULEUIT KEC. CIDADAP KOTA BANDUNG.,Ciumbuleuit,Cidadap,PT.TOWER BERSAMA GROUP,"International Financial Centre 6th & 8th floor Jl. Jend. Sudirman Kav 22-23, Jakarta 12920",-6.85881,107.60226,GF/SST/36,36
120783109,DARUTTAUHID-HTLTLGSARI,"CILIMUS RT.07/RW.06, KEL.ISOLA, KEC. SUKASARI, KOTA BANDUNG. JAWA BARAT",Isola,Sukasari,PT.TOWER BERSAMA GROUP,"International Financial Centre 6th & 8th floor Jl. Jend. Sudirman Kav 22-23, Jakarta 12920",-6.85717,107.58993,GF/SST/42,42
120797109,KOMPUNPAD-BTNAWILIGAR,JL. CIGADUNG SELATAN I NO. 28 KEL.CIGADUNG KEC. CIBEUNYING KALER KOTA BANDUNG,Cigadung,Cibeunying Kaler,PT.TOWER BERSAMA GROUP,"International Financial Centre 6th & 8th floor Jl. Jend. Sudirman Kav 22-23, Jakarta 12920",-6.88677,107.62935,RT/MT /25,25
120770104,UJUNGBERUNG-RS,JL. GOLF NO. 19 DESA PAKEMITAN KEC. CIDADAP KOTA BANDUNG.,Pakemitan,Cinambo,PT.TOWER BERSAMA GROUP,"International Financial Centre 6th & 8th floor Jl. Jend. Sudirman Kav 22-23, Jakarta 12920",-6.92067,107.6886,GF/SST/42,42
120077109,ANTAPANI-MMPANORAMA,JL. CIHAURKUKU RT 03 RW 01KEL.ANTAPANI WETAN KEC. ANTAPANIBANDUNG,Antapani Wetan,Antapani,PT.TOWER BERSAMA GROUP,"International Financial Centre 6th & 8th floor Jl. Jend. Sudirman Kav 22-23, Jakarta 12920",-6.91189,107.66277,GF/SST/36,36
120080109,SUKARAJIN,KOMP. PUSSENIF JL. PRAMUKA VIIKEL.CIKUTRA KEC. CIBEUNYING KIDULBANDUNG,Cikutra,Cibeunying Kidul,PT.TOWER BERSAMA GROUP,"International Financial Centre 6th & 8th floor Jl. Jend. Sudirman Kav 22-23, Jakarta 12920",-6.90355,107.63684,GF/SST/36,36
122539109,JL.-SWADAYA,JL. RAJAWAI TIMUR NO. 111 KEL.CIROYOM KEC. ANDIR KAB. BANDUNG - JAWA BARAT,Ciroyom,Andir,PT.TOWER BERSAMA GROUP,"International Financial Centre 6th & 8th floor Jl. Jend. Sudirman Kav 22-23, Jakarta 12920",-6.91599,107.58536,RT/POLE/12,12
123023109,TMNHOLISIDH-CIGONDEWAH,JL. CIGONDEWAH RT 09 RW 06 KEL.CIGONDEWAH KEC. BANDUNG KULON KOTA BANDUNG,Cigondewah Kaler,Bandung Kulon,PT.TOWER BERSAMA GROUP,"International Financial Centre 6th & 8th floor Jl. Jend. Sudirman Kav 22-23, Jakarta 12920",-6.94483,107.56457,GF/CMF /32,32
123025109,CIGANITRIMKT-MARGASENANG,KOMP. BANYUBIRU H-17 RT 01 RW 10 KEL.MEKARJAYA KEC. RANCASARI KOTA BANDUNG,Mekarjaya,Rancasari,PT.TOWER BERSAMA GROUP,"International Financial Centre 6th & 8th floor Jl. Jend. Sudirman Kav 22-23, Jakarta 12920",-6.96342,107.66224,GF/SST/32,32
123028109,KOMPUNPAD-BTNAWILIGAR,JL. CIGADUNG RAYA TENGAH RT 02 RW 06 KEL.CIGADUNG KEC. CIBEUNYING KALER KOTA BANDUNG,Cigadung,Cibeunying Kaler,PT.TOWER BERSAMA GROUP,"International Financial Centre 6th & 8th floor Jl. Jend. Sudirman Kav 22-23, Jakarta 12920",-6.8824,107.62856,GF/SST/32,32
123036109,MEKARPUSPITA-LWPANJANG-(BTS-HOTEL),JL. LEUWIPANJANG GG. DAYABAKITI III RT 01 RW 04 KEL.SITUSAEUR KEC. BOJONGLOA KIDUL KOTA BANDUNG,Situsaeur,Bojongloa Kidul,PT.TOWER BERSAMA GROUP,"International Financial Centre 6th & 8th floor Jl. Jend. Sudirman Kav 22-23, Jakarta 12920",-6.94664,107.59501,RT/POLE/12,12
122421109,DAGO-ATAS-TERMINAL-DAGO-(-BTS-HOTEL-),"JL. IR. HAJI JUANDA NO. 4/163 E,KEL.DAGO,KEC.COBLONG,KOTA BANDUNG",Dago,Coblong,PT.TOWER BERSAMA GROUP,"International Financial Centre 6th & 8th floor Jl. Jend. Sudirman Kav 22-23, Jakarta 12920",-6.86642,107.62029,GF/SST/32,32
122385109,TERUSAN-CIBADUYUT-(KREASINDO),JL. TERUSAN CIBADUYUT RT 01 RW 03 DESA CANGKUANG KULON KEC. DAYEUH KOLOT KABUPATEN BANDUNGKEL.CANGKUANG KULON KEC. DAUYEUH KOLOTBANDUNG JAWA BARAT,-,-,PT.TOWER BERSAMA GROUP,"International Financial Centre 6th & 8th floor Jl. Jend. Sudirman Kav 22-23, Jakarta 12920",-6.9671,107.5919,RT/MT/25,25
122387109,ASRMPUSSENIF-CIKUTRABARU,JL. CIKUTRA SUKAPADA RT.02 RW.16 KEL.PADASUKA KEC. CIBEUNYING KIDUL KOTA BANDUNG PROP. JAWA BARAT.,Padasuka,Cibeunying Kidul,PT.TOWER BERSAMA GROUP,"International Financial Centre 6th & 8th floor Jl. Jend. Sudirman Kav 22-23, Jakarta 12920",-6.89965,107.64359,GF/POLE/9.,9
122388109,BDGN-173-BBC-SITE_3199,JL. JUMUT RT 01 RW 07 KEL.PASIR JATI KEC. UJUNGBERUNG KAB. BANDUNG,Pasirjati,Ujungberung,PT.TOWER BERSAMA GROUP,"International Financial Centre 6th & 8th floor Jl. Jend. Sudirman Kav 22-23, Jakarta 12920",-6.91046,107.70563,GF/SST/33,33
122211109,SMATKRIDA-NUSANTARA,JL.  SUKALUYU RT 06 RW 15 KEL.CIPADUNG KEC. CIBIRU KOTA BANDUNG,Cipadung,Cibiru,PT.TOWER BERSAMA GROUP,"International Financial Centre 6th & 8th floor Jl. Jend. Sudirman Kav 22-23, Jakarta 12920",-6.91648,107.7262,GF/SST/42,42
122233109,HOLIS-TAMANSAKURA,CIBUNTU RT01 RW10 KEL.BABAKAN KEC. BABAKAN CIPARAY KOTA BANDUNG,Babakan,Babakan Ciparay,PT.TOWER BERSAMA GROUP,"International Financial Centre 6th & 8th floor Jl. Jend. Sudirman Kav 22-23, Jakarta 12920",-6.93103,107.57538,GF/SST/32,32
122235109,JL.-BKR-CIJAGRA-(-BTS-HOTEL-),KOMP. PERMATA TAMAN SARI BLOK 3 KAV N7 RT04 RW11 KEL.CISARANTEN KEC.ARCAMANIK KOTA BANDUNG,Cisaranten,Arcamanik,PT.TOWER BERSAMA GROUP,"International Financial Centre 6th & 8th floor Jl. Jend. Sudirman Kav 22-23, Jakarta 12920",-6.92327,107.67738,GF/SST/32,32
121825109,BDGN-58-DMT3,JL. SURYALAYA INDAH NO. 1-3 RT 04 RW 04 KEL.CIJAGRA KEC. LENGKONG KOTA BANDUNG,Cijagra,Lengkong,PT.TOWER BERSAMA GROUP,"International Financial Centre 6th & 8th floor Jl. Jend. Sudirman Kav 22-23, Jakarta 12920",-6.94292,107.62482,GF/POLE/26,26
120483109,PARAKANSAAT-JATI-SARI,"JL. PARAKANSAAT RAYA NO. 5A RT. 02 / RW. 01 KEL.CISARANTEN ENDAH, KEC. ARCAMANIK, KOTA BANDUNG",Cisaranten Endah,Arcamanik,PT.TOWER BERSAMA GROUP,"International Financial Centre 6th & 8th floor Jl. Jend. Sudirman Kav 22-23, Jakarta 12920",-6.93204,107.66905,GF/SST/31,31
123218109,BDGN-244,SETRAWANGI SELATAN I NO. 8 RT 04 RW 02 KEL.SUKAGALIH KEC. SUKAJADI KOTA BANDUNG,Sukagalih,Sukajadi,PT.TOWER BERSAMA GROUP,"International Financial Centre 6th & 8th floor Jl. Jend. Sudirman Kav 22-23, Jakarta 12920",-6.88483,107.58472,RT/POLE/12,12
123178109,PRMANGLAYANG-STO-UJUNGBERUNG,JL. CILENGKRANG II RT 03 RW. 03 KEL.PALASARI KEC. CIBIRU KOTA BANDUNG,Palasari,Cibiru,PT.TOWER BERSAMA GROUP,"International Financial Centre 6th & 8th floor Jl. Jend. Sudirman Kav 22-23, Jakarta 12920",-6.91903,107.71432,GF/SST/42,42
120549110,3G_SURYALAYACIJAGRA,"JL. SURYALAYA TIMUR 2 NO. 11 RT.11 RW.04 KEL.CIJAGRA, KEC. LENGKONG",Cijagra,Lengkong,PT.TOWER BERSAMA GROUP,"International Financial Centre 6th & 8th floor Jl. Jend. Sudirman Kav 22-23, Jakarta 12920",-6.9455,107.62499,GF/SST/32,32
120792109,HTLPERDANA-JASAARTHA,JL. DULATIP 139 - 141 KAV B-10 (RUKO) KEL.KEBON JERUK KEC. ANDIR KOTA BANDUNG,Kebon Jeruk,Andir,PT.TOWER BERSAMA GROUP,"International Financial Centre 6th & 8th floor Jl. Jend. Sudirman Kav 22-23, Jakarta 12920",-6.91665,107.60241,RT/POLE/12,12
120300109,KRTINGGAL-CIHAMPELAS,JL. CIHAMPELAS NO. 264-268 BANDUNG 40131,-,-,PT.TOWER BERSAMA GROUP,"International Financial Centre 6th & 8th floor Jl. Jend. Sudirman Kav 22-23, Jakarta 12920",-6.88791,107.60415,RT/Pole/6,6
120063109,RCBOLANGINDHMG-PURIASIHMD,JL. GIRANG RT 13 / 06 KEL.SEKEJATI KEC. BUAH BATU KOTA BANDUNG,Sekejati,Buahbatu,PT.TOWER BERSAMA GROUP,"International Financial Centre 6th & 8th floor Jl. Jend. Sudirman Kav 22-23, Jakarta 12920",-6.9477,107.65314,GF/SST/36,36
120064109,NUANSAINDAHMG-GRIYABDGINDHMG,"JL. H. SANUSI, KAMPUNG RANCACILI RT 02 RW 02KEL.MEKARJAYA KEC. RANCASARIBANDUNG",Mekarjaya,Rancasari,PT.TOWER BERSAMA GROUP,"International Financial Centre 6th & 8th floor Jl. Jend. Sudirman Kav 22-23, Jakarta 12920",-6.95926,107.67285,GF/SST/36,36
120456109,TAMANSARI-KALADI,GEDUNG BANK DANAMON DAGO JL. JUANDA NO. 64 KOTA BANDUNG,-,-,PT.TOWER BERSAMA GROUP,"International Financial Centre 6th & 8th floor Jl. Jend. Sudirman Kav 22-23, Jakarta 12920",-6.89935,107.61308,RT/SST/21,21
120464109,CINGESED/BINA-HARAPAN,"JL. PERMATA BUMI RAYA NO. 6-8, RT/RW 01/03, KEL.CISARANTEN KULON, KEC. ARCAMANIK, KOTA BANDUNG",Cisaranten Kulon,Arcamanik,PT.TOWER BERSAMA GROUP,"International Financial Centre 6th & 8th floor Jl. Jend. Sudirman Kav 22-23, Jakarta 12920",-6.92042,107.68242,GF/SST/52,52
120452102,STD-SILIWANGI,"STADION SILIWANGI JL. LOMBOK (JASDAM SILIWANGI). KOTA BANDUNG ,PROP. JAWA BARAT BANDUNG",-,-,PT.TOWER BERSAMA GROUP,"International Financial Centre 6th & 8th floor Jl. Jend. Sudirman Kav 22-23, Jakarta 12920",-6.91122,107.61989,GF/SST/35,35
120842104,MOHAMMADTOHA,JL.  NARADIREJA RT03/04 KEC. WATES CIGARELENG - BANDUNG,Cigereleng,Regol,PT.TOWER BERSAMA GROUP,"International Financial Centre 6th & 8th floor Jl. Jend. Sudirman Kav 22-23, Jakarta 12920",-6.96095,107.60927,GF/SST/55,55
120846104,SINDANG_SIRNA,"JL.  SINDANG SIRNA ELOK RT.04/02 KEL.SUKARASA, KEC. SUKASARI",Sukarasa,Sukasari,PT.TOWER BERSAMA GROUP,"International Financial Centre 6th & 8th floor Jl. Jend. Sudirman Kav 22-23, Jakarta 12920",-6.87984,107.58827,GF/SST/40,40
120847104,TERMINAL_DAGO,"JL.  BUKIT DAGO UTARA II, RT04/03 NO. 46 KEL.DAGO, KEC. COBLONG, KAB. BANDUNG",Dago,Coblong,PT.TOWER BERSAMA GROUP,"International Financial Centre 6th & 8th floor Jl. Jend. Sudirman Kav 22-23, Jakarta 12920",-6.86884,107.61542,GF/SST/55,55
TBG05_WJ014,BUAH-BATU,"JL. TERUSAN BUAH BATU (CILETIK), BANDUNG",-,-,PT.TOWER BERSAMA GROUP,"International Financial Centre 6th & 8th floor Jl. Jend. Sudirman Kav 22-23, Jakarta 12920",-6.95062,107.63723,GF/MP /42,42
TBG05_WJ020,CIDADAP,"POLSEK CIDADAP, JL. SETIABUDHI, BANDUNG",-,-,PT.TOWER BERSAMA GROUP,"International Financial Centre 6th & 8th floor Jl. Jend. Sudirman Kav 22-23, Jakarta 12920",-6.84707,107.59929,GF/SST/80,80
TBG05_WJ026,ANTAPANI-TENGAH,"GEDUNG ATGF 8, JL. PURWAKARTA 137, KEL.ANTAPANI TENGAH, KEC. CICADAS, BANDUNG",Antapani Tengah,Antapani,PT.TOWER BERSAMA GROUP,"International Financial Centre 6th & 8th floor Jl. Jend. Sudirman Kav 22-23, Jakarta 12920",-6.91721,107.66055,RT/SST/26,26
TBG06_WJ086,SARIJADI,JL. SARIMANIS I SARIJADI/SMA 15 BANDUNG,-,-,PT.TOWER BERSAMA GROUP,"International Financial Centre 6th & 8th floor Jl. Jend. Sudirman Kav 22-23, Jakarta 12920",-6.87767,107.57421,GF/Special Pole/15,15
TBG03_WJ264,M.-TOHA,KOMP. PERUMAHAN CIBIUK INDAH KEL.PESAWAHAN BANDUNGEL.PESAWAHAN BANDUNG,-,-,PT.TOWER BERSAMA GROUP,"International Financial Centre 6th & 8th floor Jl. Jend. Sudirman Kav 22-23, Jakarta 12920",-6.96351,107.60964,GF/SST/53,53
T000337,RRI-BANDUNG,JL. DIPENEGORO NO. 61 RRI CAB.MADYA BANDUNG,-,-,PT.TOWER BERSAMA GROUP,"International Financial Centre 6th & 8th floor Jl. Jend. Sudirman Kav 22-23, Jakarta 12920",-6.90067,107.62471,GF/SST/72,72
T000357,HEDEBAGE,"TRAC ASTRA RENT CAR, JL. SOEKARNO. HATTA NO. 811, KEL.CINAMBO, KEC CINAMBO, KOTA BANDUNG 40294",Cinambo,Cinambo,PT.TOWER BERSAMA GROUP,"International Financial Centre 6th & 8th floor Jl. Jend. Sudirman Kav 22-23, Jakarta 12920",-6.93651,107.69297,GF/MP/42,42
120210110,KPAD-GEGER-KALONG,GOR KOMPLEK KPAD JL. PAK GATOT RAYA KEL.GEGERKALONG KEC. SUKASARI KAB.BANDUNG,Gegerkalong,Sukasari,PT.TOWER BERSAMA GROUP,"International Financial Centre 6th & 8th floor Jl. Jend. Sudirman Kav 22-23, Jakarta 12920",-6.86503,107.58752,GF/MP/35,35
120428102,ELIZBTOTISTA-MD,PERTOKOAN ELIZABETH JL.  IBU INGGIT GARNASIH/ CIATEUL BANDUNG,-,-,PT.TOWER BERSAMA GROUP,"International Financial Centre 6th & 8th floor Jl. Jend. Sudirman Kav 22-23, Jakarta 12920",-6.93202,107.60329,RT/POLE/12,12
T000460,PERUM-PARAKAN,"JL. SUADARMA, KOMPLEK BNI BUAH BATU RT 05/04 NO. 9 KEL.BATU NUNGGAL BANDUNG KIDUL BANDUNG",Batununggal,Bandung Kidul,PT.TOWER BERSAMA GROUP,"International Financial Centre 6th & 8th floor Jl. Jend. Sudirman Kav 22-23, Jakarta 12920",-6.95166,107.63538,GF/POLE/36,36
T000438,KOPO-PLAZA,KOMPL.PERTOKOAN KOPO KENCANA NO. C-13 KEL.SUKA ASIH RT 08/09 KEC.BOJONGLOA KALER KOTA BANDUNG,Sukaasih,Bojongloa Kaler,PT.TOWER BERSAMA GROUP,"International Financial Centre 6th & 8th floor Jl. Jend. Sudirman Kav 22-23, Jakarta 12920",-6.93355,107.58919,RT/SST/26,26
T000304,ARJUNA,JL. PASIR KALIKI NO. 45 DESA CICENDO,-,Cicendo,PT.TOWER BERSAMA GROUP,"International Financial Centre 6th & 8th floor Jl. Jend. Sudirman Kav 22-23, Jakarta 12920",-6.91246,107.59754,RT/SST/26,26
T000279,PASIR-KOJA,JL. PETA NO. 256 RT.004/006 DS.SUKA ASIH BOJONG LOAKALER,Sukaasih,Bojongloa Kaler,PT.TOWER BERSAMA GROUP,"International Financial Centre 6th & 8th floor Jl. Jend. Sudirman Kav 22-23, Jakarta 12920",-6.92696,107.58599,RT/SST/26,26
TBG06_WJ085,IMANUEL-JL.-PETA,JL. PETA NO. 87 BANDUNG,-,-,PT.TOWER BERSAMA GROUP,"International Financial Centre 6th & 8th floor Jl. Jend. Sudirman Kav 22-23, Jakarta 12920",-6.938,107.59756,RT/SST/34,34
TBG05_WJ024,KACAPIRING,"JL. JEND. A. YANI NO. 393 RT/RW 003/010, KEL.SUKAMAJU, KEC. CIBEUNYING KIDUL, KOTA BANDUNG",Sukamaju,Cibeunying Kidul,PT.TOWER BERSAMA GROUP,"International Financial Centre 6th & 8th floor Jl. Jend. Sudirman Kav 22-23, Jakarta 12920",-6.91126,107.63824,RT/SST/26,26
TBG05_WJ025,BINONG,"BENGKEL.SHAFIRA, JL. IBRAHI ADJIE KIARA CONDONG NO. 350, KEL.BATUNUNGGAL, KEC. BINO. NG, KOTA BANDUNG",Batununggal,Batununggal,PT.TOWER BERSAMA GROUP,"International Financial Centre 6th & 8th floor Jl. Jend. Sudirman Kav 22-23, Jakarta 12920",-6.93696,107.64222,RT/SST/26,26
TBG05_WJ028,PENYILEUKAN,"JL. KAV. PERUMAHAN CIBIRU, DEPAN PERUMAHAN BUMI PENYILEUKAN, KEL.CIPADUNG KIDUL, KEC. PANYILEUKAN, KOTA BANDUNG",Cipadung Kulon,Panyileukan,PT.TOWER BERSAMA GROUP,"International Financial Centre 6th & 8th floor Jl. Jend. Sudirman Kav 22-23, Jakarta 12920",-6.9382,107.71561,GF/SST/47,47
120416109,BUNDCIBIRUMG-MEKARMULYAMG,JL. A. H. NASUTION RT. 01/02 KM. 13 KEL.CIPADUNG KEC. CIBIRU KOTA BANDUNG,Cipadung,Cibiru,PT.TOWER BERSAMA GROUP,"International Financial Centre 6th & 8th floor Jl. Jend. Sudirman Kav 22-23, Jakarta 12920",-6.92931,107.71228,GF/SST/42,42
120837104,BTUNUNGAL_INDH,JL.  TERUSAN SUKAATI KP.SUKAMANAH RT.02 RW.02 KOTA BANDUNG,-,-,PT.TOWER BERSAMA GROUP,"International Financial Centre 6th & 8th floor Jl. Jend. Sudirman Kav 22-23, Jakarta 12920",-6.95604,107.62222,GF/SST/52,52
120839104,GEDEBAGE,JL.  RANCA SAWO (TERUSAN SMA 42) CIWASTRA BABAKAN SITU MARGA CINTA.,-,-,PT.TOWER BERSAMA GROUP,"International Financial Centre 6th & 8th floor Jl. Jend. Sudirman Kav 22-23, Jakarta 12920",-6.95976,107.671,GF/SST/52,52
120840104,RANDUSARI,JL. RANDUSARI 3 NO. 19 ANTAPANI KIDUL,Antapani Kidul,Antapani,PT.TOWER BERSAMA GROUP,"International Financial Centre 6th & 8th floor Jl. Jend. Sudirman Kav 22-23, Jakarta 12920",-6.92627,107.66071,GF/SST/46,46
120844104,RD_TO_LEMBANG,"JL.  SETIA BUDI KM 10 NO. : 8B RT 03/ 07 CIRATEUM , BANDUNG",-,-,PT.TOWER BERSAMA GROUP,"International Financial Centre 6th & 8th floor Jl. Jend. Sudirman Kav 22-23, Jakarta 12920",-6.84656,107.60195,GF/SST/52,52
121287104,GRIYAINDAH,TB. JEMBAR JL.  GRIYA BANDUNG INDAH DS. BUAH BATU KEC. BOJONG SOANG KAB. BANDUNG,-,-,PT.TOWER BERSAMA GROUP,"International Financial Centre 6th & 8th floor Jl. Jend. Sudirman Kav 22-23, Jakarta 12920",-6.96819,107.67005,GF/SST/55,55
TBG03_WJ257,ANTAPANI,JL. CIBODAS RAYA - ANTAPANI - BANDUNGBANDUNG,-,Antapani,PT.TOWER BERSAMA GROUP,"International Financial Centre 6th & 8th floor Jl. Jend. Sudirman Kav 22-23, Jakarta 12920",-6.92486,107.66421,GF/SST/53,53
TBG03_WJ280,PASIR-KOJA,JL. SUKAMULYA RT 05/10 BOJONG LOA KALER KOTA BANDUNG,Babakan Tarogong,Bojongloa Kaler,PT.TOWER BERSAMA GROUP,"International Financial Centre 6th & 8th floor Jl. Jend. Sudirman Kav 22-23, Jakarta 12920",-6.93864,107.58915,GF/SST/53,53
TBG03_WJ269,GEDE-BAGE,"JL. RAYA GEDE BAGE, GEDE BAGE SELATAN BANDUNGSELATAN BANDUNG",-,Gedebage,PT.TOWER BERSAMA GROUP,"International Financial Centre 6th & 8th floor Jl. Jend. Sudirman Kav 22-23, Jakarta 12920",-6.95231,107.68733,GF/SST/80,80
TBG05_WJ021,GURUMINDA,"JL. CISARANTEN KULON NO. 43, KEL.CISARANTEN KULON, KEC. ARCAMANIK, KOTA BANDUNG",Cisaranten Kulon,Arcamanik,PT.TOWER BERSAMA GROUP,"International Financial Centre 6th & 8th floor Jl. Jend. Sudirman Kav 22-23, Jakarta 12920",-6.93186,107.67982,GF/SST/55,55
TBG05_WJ030,BUANA-INDAH,"JL. BABAKAN CIPARAY NO. 172 - 195 B, KEL.BABAKAN CIPARAY, KEC. BABAKAN CIPARAY, KOTA BANDUNG (DEKAT PASAR CARINGIN BANDUNG)",Babakan Ciparay,Babakan Ciparay,PT.TOWER BERSAMA GROUP,"International Financial Centre 6th & 8th floor Jl. Jend. Sudirman Kav 22-23, Jakarta 12920",-6.94171,107.58347,GF/SST/42,42
T000276,CIKUTRA,JL. CIKUTRA BARU VI NO. 201 RT 01 RW 03 KEL.NEGLASARI KEC.CIBEUNYING KALER,Neglasari,Cibeunying Kaler,PT.TOWER BERSAMA GROUP,"International Financial Centre 6th & 8th floor Jl. Jend. Sudirman Kav 22-23, Jakarta 12920",-6.8957,107.64009,GF/SST/42,42
T000314,SRIWIJAYA-BANDUNG,JL. PASIR SALAM IV NO. 25 RT 06 RW 09 KEL.ANCOL REGOL BANDUNG,Ancol,Regol,PT.TOWER BERSAMA GROUP,"International Financial Centre 6th & 8th floor Jl. Jend. Sudirman Kav 22-23, Jakarta 12920",-6.94396,107.61828,GF/MP /36,36
T000500,TERUSAN-BUAH-BATU,"JL.  SEKALIMUS BARAT RT 04 RW 05 KEL.. BATU TUNGGAL, KEC, BANDUNG KIDUL. KOTA BANDUNG",Batununggal,Bandung Kidul,PT.TOWER BERSAMA GROUP,"International Financial Centre 6th & 8th floor Jl. Jend. Sudirman Kav 22-23, Jakarta 12920",-6.94998,107.63707,GF/TRA/31,31
120433109,JL-PAMEKAR-MD-KAUMKIDUL-MD,JL. SINDANGSARI RT. 04/03 KEL.CIPADUNG KULON KEC. PANYILEUKAN KOTA BANDUNG,Cipadung Kulon,Panyileukan,PT.TOWER BERSAMA GROUP,"International Financial Centre 6th & 8th floor Jl. Jend. Sudirman Kav 22-23, Jakarta 12920",-6.92067,107.70033,GF/SST/34,34
TBG05_WJ034,DAGO-POJOK,"HOTEL JAYAKARTA, JL. IR. H. JUANDA 381 A, KOTA BANDUNG",-,-,PT.TOWER BERSAMA GROUP,"International Financial Centre 6th & 8th floor Jl. Jend. Sudirman Kav 22-23, Jakarta 12920",-6.871076,107.61967,RT/SST/15,15
TBG05_WJ039,RANCABOLANG,"KP. RANCANUMPANG, RT/RW 01/01, KEC. GEDE BAGE, KOTA BANDUNG",-,Gedebage,PT.TOWER BERSAMA GROUP,"International Financial Centre 6th & 8th floor Jl. Jend. Sudirman Kav 22-23, Jakarta 12920",-6.96487,107.7048,RT/SST/32,32
TBG05_WJ027,RIUNG-BANDUNG,"JL. MERCURY TENGAH INDAH NO. 70 RT/RW 01/04, KEL.MANJAHLEGA, KEC. RANCASARI, KOTA BANDUNG",Majahlega,Rancasari,PT.TOWER BERSAMA GROUP,"International Financial Centre 6th & 8th floor Jl. Jend. Sudirman Kav 22-23, Jakarta 12920",-6.94188,107.66952,GF/SST/42,42
JAW-WJV-0001-F-P,PASIR-KOJA,JL. PAGARSIH NO. MOR 21 KEL.CIBADAK KEC. ASTANA ANYAR KOTA BANDUNG,Cibadak,Astanaanyar,PT. PROTELINDO,Menara BCA Lt. 55 Jalan M.H. Thamrin No. 1 Jakarta 10310,-6.92325,107.59714,RT (Roof Top),30
JAW-WJV-0004-F-P,BABAKAN-SARI,JL. BABAKAN SARI KEL.BABAKAN SARI KEC. KIARA CONDONG KOTA BANDUNG,Babakan Sari,Kiaracondong,PT. PROTELINDO,Menara BCA Lt. 55 Jalan M.H. Thamrin No. 1 Jakarta 10310,-6.92192,107.64486,RT (Roof Top),28
JAW-WJV-0005-F-P,BIO-FARMA,JL. DR. DJUNJUNAN KEL.SUKABUNGAH KEC. SUKAJADI KOTA BANDUNG,Suka Bungah,Sukajadi,PT. PROTELINDO,Menara BCA Lt. 55 Jalan M.H. Thamrin No. 1 Jakarta 10310,-6.89931,107.59528,RT (Roof Top),30
JAW-WJV-0006-F-P,ABDUL-RIVAI,JL. DR. ABDUL RIVAI NO. MOR 1 KEL.PASIRLIKI KEC. CICENDO KOTA BANDUNG,Pasirkaliki,Cicendo,PT. PROTELINDO,Menara BCA Lt. 55 Jalan M.H. Thamrin No. 1 Jakarta 10310,-6.90461,107.60364,RT (Roof Top),25
JAW-WJV-0009-F-P,HOTEL-PROGO,"JL. PROGO NO. MOR 6 KEL.CITARUM, KEC. BANDUNG WETAN, KOTA BANDUNG",Citarum,Bandung Wetan,PT. PROTELINDO,Menara BCA Lt. 55 Jalan M.H. Thamrin No. 1 Jakarta 10310,-6.90514,107.61747,GF (GreenField),42
JAW-WJV-0011-F-P,METRO-TRADE-CENTER,JL. SOEKARNO. -HATTA NO. MOR 689 KEL.SEKEJATI KEC. MARGACINTA KOTA BANDUNG,Sekejati,Buahbatu,PT. PROTELINDO,Menara BCA Lt. 55 Jalan M.H. Thamrin No. 1 Jakarta 10310,-6.93917,107.65855,GF (GreenField),42
JAW-WJV-0013-F-P,BATUNUNGGAL,JL. SOEKARNO. -HATTA NO. MOR 489-491 KEL.CIJAGRA KEC. LENGKONG KOTA BANDUNG,Cijagra,Lengkong,PT. PROTELINDO,Menara BCA Lt. 55 Jalan M.H. Thamrin No. 1 Jakarta 10310,-6.94917,107.62531,GF (GreenField),42
JAW-WJV-0723-H-P,SANGGAR-KENCANA-JATI-SARI-BUAH-BATU,"JL. SANGGAR KENCANA III RT. 05 RW. 09 KEL.SEKEJATI, KEC. MARGACINTA, KOTA BANDUNG",Sekejati,Buahbatu,PT. PROTELINDO,Menara BCA Lt. 55 Jalan M.H. Thamrin No. 1 Jakarta 10310,-6.93489,107.66752,GF (GreenField),36
JAW-WJV-0340-H-P,JAKARTA-BABAKAN-SURABAYA,JL. TERUSAN JAKARTA KEL.BABAKAN SURABAYA KEC. KIARACONDONG KOTA BANDUNG,Babakan Surabaya,Kiaracondong,PT. PROTELINDO,Menara BCA Lt. 55 Jalan M.H. Thamrin No. 1 Jakarta 10310,-6.91339,107.64974,GF (GreenField),35
JAW-WJV-0282-H-P,TERUSAN-JAKARTA-ANTAPANI,"TERUSAN JALAN JAKARTA RT.03 RW.07 KODE POS 40291 KEL.ANTAPANI, KEC CICADAS, KOTA BANDUNG",Antapani,Antapani,PT. PROTELINDO,Menara BCA Lt. 55 Jalan M.H. Thamrin No. 1 Jakarta 10310,-6.91344,107.66006,GF (GreenField),30
JAW-WJV-0283-H-P,CIBODAS-BARU-ANTAPANI-TENGAH,JL. CIBODAS BARU RT 002 RW 022 KODE POS 40291 KEL.ANTAPANI TENGAH KEC. CICADAS KOTA BANDUNG,Antapani Tengah,Antapani,PT. PROTELINDO,Menara BCA Lt. 55 Jalan M.H. Thamrin No. 1 Jakarta 10310,-6.92014,107.66467,GF (GreenField),30
JAW-WJV-0284-H-P,KAPAS-CISARANTEUN-KULON,JL. CISANTERN BARU RT/RW 06/01 KODE POS 40293 KEL.CISARANTEN KULON KEC. ARCAMANIK KOTA BANDUNG,Cisarenten Kulon,Arcamanik,PT. PROTELINDO,Menara BCA Lt. 55 Jalan M.H. Thamrin No. 1 Jakarta 10310,-6.91872,107.67975,GF (GreenField),35
JAW-WJV-0297-H-P,RUMAH-SAKIT163-CISARANTEUN-WETAN,JL. RUMAH SAKIT NO. 163 RT 001 RW 007 KEL.CISARANTEUN WETAN KEC. UJUNG BERUNG KOTA BANDUNG,Cisaranten Wetan,Cinambo,PT. PROTELINDO,Menara BCA Lt. 55 Jalan M.H. Thamrin No. 1 Jakarta 10310,-6.934,107.69311,GF (GreenField),45
JAW-WJV-0299-H-P,CIBOLERANG-MARGAHAYU,JL. CIBOLERANG NO. 219 RT/RW 002/008 KODE POS 40224 KEL.MARGAHAYU UTARA KEC. BABAKAN CIPARAY KOTA BANDUNG,Margahayu Utara,Babakan Ciparay,PT. PROTELINDO,Menara BCA Lt. 55 Jalan M.H. Thamrin No. 1 Jakarta 10310,-6.9496,107.56964,GF (GreenField),45
JAW-WJV-0302-H-P,GEDEBAGE-SELATAN-RANCASARI,JL. GEDEBAGE SELATAN NO. 189 RT. 005/02 KODEPOS 40295 KEL.CISARANTEN KIDUL KEC. RANCASARI KOTA BANDUNG,Cisaranten Kidul,Gedebage,PT. PROTELINDO,Menara BCA Lt. 55 Jalan M.H. Thamrin No. 1 Jakarta 10310,-6.95539,107.68672,GF (GreenField),45
JAW-WJV-0310-H-P,TERUSAN-GANG-SEKOLAH-BABAKAN-SARI,GANG SEKOLAH IIRT/RW 03/02 KODE POS 40283 KEL.BABAKAN SARI KEC. KIARACONDONG KOTA BANDUNG,Babakan Sari,Kiaracondong,PT. PROTELINDO,Menara BCA Lt. 55 Jalan M.H. Thamrin No. 1 Jakarta 10310,-6.91872,107.64558,GF (GreenField),35
JAW-WJV-0316-H-P,AMD-BABAKAN-TAROGONG,JL.  AMD 10 NO. 17 A RT 006 RW 007 KOD.POS 40232 KEL.BABAKAN TAROGONG KEC. BOJONGLOA KALER KOTA BANDUNG,Babakan Tarogong,Bojongloa Kaler,PT. PROTELINDO,Menara BCA Lt. 55 Jalan M.H. Thamrin No. 1 Jakarta 10310,-6.93055,107.59183,GF (GreenField),35
JAW-WJV-0322-H-P,HASAN-BABAKAN-CIPARAY,JL. SOEKARNO. HATTA /H. HASAN II NO. 17 RT. 01/07 KODEPOS 40223 KEL.BABAKAN CIPARAY KOTA BANDUNG,Babakan Ciparay,-,PT. PROTELINDO,Menara BCA Lt. 55 Jalan M.H. Thamrin No. 1 Jakarta 10310,-6.93847,107.57758,GF (GreenField),35
JAW-WJV-0324-H-P,CIBADUYUT-RAYA-KEBONLEGA,JL. CIBADUYUT RAYA NO. 55A RT 01 RW 10 KEL.KEBON LEGA KEC. BOJONGLOA KIDUL KOTA BANDUNG,Kebon Lega,Bojongloa Kidul,PT. PROTELINDO,Menara BCA Lt. 55 Jalan M.H. Thamrin No. 1 Jakarta 10310,-6.94964,107.59406,RT (Roof Top),20
JAW-WJV-0326-H-P,DENKI-SELATAN-CISEUREUH,"JL. DENKI SELATAN V NO. 38 RT. 05/02 KODEPOS 40255 KEL.CISAUREUH KEC. REGOL, KOTA BANDUNG",Ciseureuh,Regol,PT. PROTELINDO,Menara BCA Lt. 55 Jalan M.H. Thamrin No. 1 Jakarta 10310,-6.94728,107.61175,GF (GreenField),35
JAW-WJV-0334-H-P,A.H.NASUTION-PASIR-ENDAH,JL. A.H. NASUTION NO. 1 KM 9 RT 01 RW 01 KOD.POS 40619 KEL.PASIR ENDAH KEC. UJUNG BERUNG KOTA BANDUNG,Pasir Endah,Ujungberung,PT. PROTELINDO,Menara BCA Lt. 55 Jalan M.H. Thamrin No. 1 Jakarta 10310,-6.90725,107.68728,GF (GreenField),35
JAW-WJV-0335-H-P,EASTERN-HILL-CIPADUNG,JL. MANISI KEL.CIPADUNG KEC. CIBIRU KOTA BANDUNG,Cipadung,Cibiru,PT. PROTELINDO,Menara BCA Lt. 55 Jalan M.H. Thamrin No. 1 Jakarta 10310,-6.92799,107.72021,GF (GreenField),36
JAW-WJV-0337-H-P,KOMPLEK-PESANTREN-MIFTAHUL-KHOIR-DAGO,KOMPLEK PONDOK PESANTREN MIFTAHUL KHOIR DAGO KEL.DAGO KEC. COBLONG KOTA BANDUNG,Dago,Coblong,PT. PROTELINDO,Menara BCA Lt. 55 Jalan M.H. Thamrin No. 1 Jakarta 10310,-6.87995,107.6218,GF (GreenField),46
JAW-WJV-0341-H-P,JEND.-A.-YANI-KACAPIRING,JL. JEND. A YANI NO. 358 RT. 003/07 KODEPOS 40271 KEL.KACAPIRING KEC. BATUNUNGGAL KOTA BANDUNG,Kacapiring,Batununggal,PT. PROTELINDO,Menara BCA Lt. 55 Jalan M.H. Thamrin No. 1 Jakarta 10310,-6.91247,107.63664,RT (Roof Top),20
JAW-WJV-0343-H-P,CIKUTRA-CIKUTRA,JL. CIKUTRA NO. 31 RT 01 RW 10 KEL.CIKUTRA KEC. CIBEUNYING KIDUL KOTA BANDUNG,Cikutra,Cibeunying Kidul,PT. PROTELINDO,Menara BCA Lt. 55 Jalan M.H. Thamrin No. 1 Jakarta 10310,-6.90508,107.64369,RT (Roof Top),20
JAW-WJV-0347-H-P,KANTOR-POS-RANCABOLANG,JL. RANCABOLANG NO. 16 KEL.SEKEJATI KEC. BUAH BATU KOTA BANDUNG,Sekejati,Buahbatu,PT. PROTELINDO,Menara BCA Lt. 55 Jalan M.H. Thamrin No. 1 Jakarta 10310,-6.94628,107.66242,GF (GreenField),34
JAW-WJV-0353-H-P,CIPEDES-TENGAH53-SUKAGALIH,JL. CIPEDES TENGAH NO. 15 RT. 01/05 KODEPOS 40163 KEL.SUKAGALIH KEC. SUKAJADI KOTA BANDUNG,Sukagalih,Sukajadi,PT. PROTELINDO,Menara BCA Lt. 55 Jalan M.H. Thamrin No. 1 Jakarta 10310,-6.88853,107.59047,GF (GreenField),38
JAW-WJV-0354-H-P,PAJAJARAN-TAMAN-SARI,JL. PAJAJARAN NO. 28 RT 06 RW 18 KEL.TAMANSARI KEC. BANDUNG WETAN KOTA BANDUNG,Tamansari,Bandung Wetan,PT. PROTELINDO,Menara BCA Lt. 55 Jalan M.H. Thamrin No. 1 Jakarta 10310,-6.90693,107.60527,RT (Roof Top),25
JAW-WJV-0364-H-P,SINDANGSARI-WARENG-CIPADUNG-KULON,JL. SINDANGSARI RT 03 RW 04 KOD.POS 40614 KEL.CIPADUNG KULON KEC. CIBIRU KOTA BANDUNG,Cipadung Kulon,Panyileukan,PT. PROTELINDO,Menara BCA Lt. 55 Jalan M.H. Thamrin No. 1 Jakarta 10310,-6.91755,107.7028,GF (GreenField),35
JAW-WJV-0385-H-P,CIWASTRA-MARGASENANG,JL. /GANG CIWASTRA RT 02 RW 06 KEL.MEKARJAYA KEC. RANCASARI KOTA BANDUNG,Mekarjaya,Rancasari,PT. PROTELINDO,Menara BCA Lt. 55 Jalan M.H. Thamrin No. 1 Jakarta 10310,-6.9624,107.66931,GF (GreenField),38
JAW-WJV-0392-H-P,JEND.-A.-YANI-CICAHEUM,JL. JEND. AHMAD YANI KEL.CICAHEUM KEC. KIARACONDONG KOTA BANDUNG,Cicaheum,Kiaracondong,PT. PROTELINDO,Menara BCA Lt. 55 Jalan M.H. Thamrin No. 1 Jakarta 10310,-6.90306,107.65456,RT (Roof Top),12
JAW-WJV-0634-H-P,BSC-BANDUNG-1-&-2,JL. MOCHAMAD RAMDHAN NO. 90 RT. 07/03 KODEPOS 40252 KEL.CIATEUL KEC. REGOL KOTA BANDUNG,Ciateul,Regol,PT. PROTELINDO,Menara BCA Lt. 55 Jalan M.H. Thamrin No. 1 Jakarta 10310,-6.93603,107.61061,GF (GreenField),60
JAW-WJV-0285-H-P,CINGISED-RAYA-CISARANTEN-KULON,JL. CINGISED RAYA GANG ULIL ALBAB NO. 1 RT.03 RW. 16 KODE POS 40293 KEL.CISARANTEN KULON KEC. ARCAMANIK KOTA BANDUNG,Cisaranten,Arcamanik,PT. PROTELINDO,Menara BCA Lt. 55 Jalan M.H. Thamrin No. 1 Jakarta 10310,-6.92879,107.67297,GF (GreenField),30
JAW-WJV-0286-H-P,LEMAH-HEGAR-TIMUR-SUKAPURA,JL. LEMAH KHEGAR TIMUR RT. 004 RW. 04 NO. MOR. KODE POS 40285 KEL.SUKAPURA KEC. KIARACONDONG KOTA BANDUNG,Sukapura,Kiaracondong,PT. PROTELINDO,Menara BCA Lt. 55 Jalan M.H. Thamrin No. 1 Jakarta 10310,-6.93048,107.65436,GF (GreenField),36
JAW-WJV-0295-H-P,IR.-H.-JUANDA-TAMAN-SARI,JL. IR. H. JUANDA NO. 61-63 KEL.TAMANSARI KEC. BANDUNG WETAN KOTA BANDUNG,Tamansari,Bandung Wetan,PT. PROTELINDO,Menara BCA Lt. 55 Jalan M.H. Thamrin No. 1 Jakarta 10310,-6.90074,107.61165,RT (Roof Top),6
JAW-WJV-0303-H-P,KP.-CIDURIAN-BARU-SEKEJATI,JL. CIDURIAN BARU 17 RT. 04 RW. 05 NO. MOR. KODE POS 40286 KEL.SEKEJATI KEC. MARGACINTA KOTA BANDUNG,Sekejati,Buahbatu,PT. PROTELINDO,Menara BCA Lt. 55 Jalan M.H. Thamrin No. 1 Jakarta 10310,-6.9397,107.65452,GF (GreenField),35
JAW-WJV-0317-H-P,JAMIKA-SUKAHAJI,JL. JAMIKA NO. 118 RT. 05 RW. 06 KODE POS 40221 KEL.SUKAHAJI KEC. BABAKAN CIPARAY KOTA BANDUNG,Sukahaji,Babakan Ciparay,PT. PROTELINDO,Menara BCA Lt. 55 Jalan M.H. Thamrin No. 1 Jakarta 10310,-6.92375,107.5855,RT (Roof Top),23
JAW-WJV-0318-H-P,BABAKAN-CIPARAY-SUKAASIH,JL. BABAKAN CIPARAY NO. MOR 195 RT. 07 RW. 07 KODE POS 40233 KEL.SUKAASIH KEC. BOJONGLOA KALER KOTA BANDUNG,Sukaasih,Bojongloa Kaler,PT. PROTELINDO,Menara BCA Lt. 55 Jalan M.H. Thamrin No. 1 Jakarta 10310,-6.93266,107.58497,GF (GreenField),35
JAW-WJV-0319-H-P,KOPO-SITUSAEUR,JL. K.H WAHID HASIM NO. 235 RT. 02 RW. 06 KODE POS 40234 KEL.SITUSAEUR KEC. BOJONGLOA KIDUL KOTA BANDUNG,Situsaeur,Bojongloa Kidul,PT. PROTELINDO,Menara BCA Lt. 55 Jalan M.H. Thamrin No. 1 Jakarta 10310,-6.93964,107.59364,RT (Roof Top),20
JAW-WJV-0323-H-P,SOEKARNO-HATTA-KOPO,JL. PUSRI RT. 04 RW. 11 NO. MOR . KODE POS 40233 KEL.KOPO KEC. BOJONGLOA KEL.AER KOTA BANDUNG,Kopo,Bojongloa Kaler,PT. PROTELINDO,Menara BCA Lt. 55 Jalan M.H. Thamrin No. 1 Jakarta 10310,-6.94245,107.58635,GF (GreenField),35
JAW-WJV-0325-H-P,INHOFTANK-PELINDUNG-HEWAN,KOMPLEK KURDI REGENCY NO. 40 B RT. 02 RW. 06 BANDUNG KODE POS 40243 KEL.PELINDUNG HEWAN KEC. ASTANA ANYAR KOTA BANDUNG,Pelindung Hewan,Astanaanyar,PT. PROTELINDO,Menara BCA Lt. 55 Jalan M.H. Thamrin No. 1 Jakarta 10310,-6.94173,107.60352,RT (Roof Top),20
JAW-WJV-0328-H-P,BUAH-BATU-MALABAR,JL. BUAH BATU NO. 47A RT. 04 RW. 11 KODE POS 40262 KEL.MALABAR KEC. LENGKONG KOTA BANDUNG,Malabar,Lengkong,PT. PROTELINDO,Menara BCA Lt. 55 Jalan M.H. Thamrin No. 1 Jakarta 10310,-6.93257,107.61891,RT (Roof Top),23
JAW-WJV-0330-H-P,OTISTA220-KARANGANYAR,JL. OTO ISKANDARDINATA KEL.KARANGANYAR KEC. ASTANAANYAR KOTA BANDUNG,Karang Anyar,Astanaanyar,PT. PROTELINDO,Menara BCA Lt. 55 Jalan M.H. Thamrin No. 1 Jakarta 10310,-6.92269,107.60378,RT (Roof Top),25
JAW-WJV-0346-H-P,CIPAMOKOLAN-CIPAMOKOLAN,JL. CIPAMOKOLAN NO. 38 RT. 04 RW. 08 KODE POS 40292 KEL.CIPAMOKOLAN KEC. RANCASARI KOTA BANDUNG,Cipamokolan,Rancasari,PT. PROTELINDO,Menara BCA Lt. 55 Jalan M.H. Thamrin No. 1 Jakarta 10310,-6.94867,107.67685,GF (GreenField),35
JAW-WJV-0304-H-P,MARGALUYU-MARGASARI,KP. MARGALUYU KEL.MARGASARI KEC. MARGACINTA KOTA BANDUNG,Margasari,Buahbatu,PT. PROTELINDO,Menara BCA Lt. 55 Jalan M.H. Thamrin No. 1 Jakarta 10310,-6.95275,107.6511,GF (GreenField),45
JAW-WJV-0329-H-P,JEND.-A.-YANI-MALABAR,JL. JEND. AHMAD YANI KEL.MALABAR KEC. LENGKONG KOTA BANDUNG,Malabar,Lengkong,PT. PROTELINDO,Menara BCA Lt. 55 Jalan M.H. Thamrin No. 1 Jakarta 10310,-6.92009,107.62222,RT (Roof Top),25
JAW-WJV-0349-H-P,OLYMPIC-MOTOR-HOLIS,JL. HOLIS NO. 4 RT 04 RW 03 KEL.CIBUNTU KEC. BANDUNG KULON KOTA BANDUNG,Cibuntu,Bandung Kulon,PT. PROTELINDO,Menara BCA Lt. 55 Jalan M.H. Thamrin No. 1 Jakarta 10310,-6.91787,107.57602,RT (Roof Top),20
JAW-WJV-0001-H-F,STIMIK-LIKMI-(DAGO),JL. GANESHA NO. 7 RT 03 RW 04 KEL.LEBAK SILIWANGI KEC. COBLONG KOTA BANDUNG,Lebak Siliwangi,Coblong,PT. PROTELINDO,Menara BCA Lt. 55 Jalan M.H. Thamrin No. 1 Jakarta 10310,-6.89422,107.61098,RT (Roof Top),9
JAW-WJV-0746-H-P,CIPARAY-KUJANGSARI-BANDUNG-KIDUL,JL. CIPARAY KEL.KUJANGSARI KEC. BANDUNG KIDUL KOTA BANDUNG,Kujangsari,Bandung Kidul,PT. PROTELINDO,Menara BCA Lt. 55 Jalan M.H. Thamrin No. 1 Jakarta 10310,-6.95979,107.64347,GF (GreenField),36
JAW-WJV-0804-H-P,CITAMIANG-SUKAMAJU-CIBEUNYING,"JL.  CITAMIANG NO. 55 RT. 01 RW. 07 KEL.SUKAMAJU, KEC. CIBEUNYING KIDUL, KOTA BANDUNG",Sukamaju,Cibeunying Kidul,PT. PROTELINDO,Menara BCA Lt. 55 Jalan M.H. Thamrin No. 1 Jakarta 10310,-6.9078,107.63478,RT (Roof Top),18
JAW-WJV-0764-H-P,JAMBANGAN-CIGONDEWAH-WETAN--BANDUNG-KULON,"JL. KP. BLOK JAMBANGAN RT. 02 RW. 10 KEL.CIGONDEWAH KALER, KEC. BANDUNG KULON, KOTA BANDUNG",Cigondewah Kaler,Bandung Kulon,PT. PROTELINDO,Menara BCA Lt. 55 Jalan M.H. Thamrin No. 1 Jakarta 10310,-6.9373,107.56168,GF (GreenField),36
JAW-WJV-0747-H-P,SETRAWANGI-BABAKAN-SURABAYA-KIARACONDONG,"JL. SETRAWANGI RAYA NO. 10 RT. 04 RW. 15 KEL.BABAKAN SURABAYA KEC. KIARACONDONG, KOTA BANDUNG",Babakan Surabaya,Kiaracondong,PT. PROTELINDO,Menara BCA Lt. 55 Jalan M.H. Thamrin No. 1 Jakarta 10310,-6.91863,107.65269,RT (Roof Top),15
JAW-WJV-0018-X-B,SERSAN-BAJURI,JL. NEGLA UTARA RT 05 RW 04 KEL.ISOLA KEC. SUKASARI KOTA BANDUNG,Isola,Sukasari,PT. PROTELINDO,Menara BCA Lt. 55 Jalan M.H. Thamrin No. 1 Jakarta 10310,-6.85457,107.59413,RT (Roof Top),25
JAW-WJV-0007-X-B,RANCABOLANG-SEKEJATI,JL. KAWALUYAAN RT 006 RW 006 KEL.JATISARI KEC. BUAHBATU KOTA BANDUNG,Jatisari,Buahbatu,PT. PROTELINDO,Menara BCA Lt. 55 Jalan M.H. Thamrin No. 1 Jakarta 10310,-6.93728,107.66224,RT (Roof Top),25
JAW-WJV-0692-H-P,CILANDAK-SUKARASA-SUKASARI,"JL. CILANDAK RT 04 RW 05 KEL.SUKARASA ,SUKARASA,SUKASARI",Sukarasa,Sukasari,PT. PROTELINDO,Menara BCA Lt. 55 Jalan M.H. Thamrin No. 1 Jakarta 10310,-6.8757,107.58093,RT (Roof Top),22
JAW-WJV-0720-H-P,SUKAJADI-PASTEUR-SUKAJADI,"JL.  SUKAJADI NO. 140 RT. 01 RW. 06 KEL.PASTEUR, KEC. SUKAJADI, KOTA BANDUNG",Pasteur,Sukajadi,PT. PROTELINDO,Menara BCA Lt. 55 Jalan M.H. Thamrin No. 1 Jakarta 10310,-6.88949,107.59732,RT (Roof Top),15
JAW-WJV-0752-H-P,CILENGKRANG-I-CISURUPAN-CIBIRU,JL. CILENGKRANG RT 04 RW 05 KEL.CISURUPAN KEC. CIBIRU KOTA BANDUNG,Cisurupan,Cibiru,PT. PROTELINDO,Menara BCA Lt. 55 Jalan M.H. Thamrin No. 1 Jakarta 10310,-6.91299,107.71944,GF (GreenField),53
JAW-WJV-0052-H-B,GAGAK,JL. GAGAK NO. 126 RT 001 RW 004 KEL.SUKALUYU KEC. CIBUENYING KOTA BANDUNG,Sukaluyu,Cibeunying Kaler,PT. PROTELINDO,Menara BCA Lt. 55 Jalan M.H. Thamrin No. 1 Jakarta 10310,-6.89575,107.62787,RT (Roof Top),25
JAW-WJV-0035-X-B,3G_KOMPLEKSKEJAKSAANJATIHANDAP-(SEMI-MACRO),JL.  SIRNAGALIH B-15 RT 01 RW 08 KEL.JATIHANDAP KEC. MANDALAJATI KOTA BANDUNG,Jatihandap,Mandalajati,PT. PROTELINDO,Menara BCA Lt. 55 Jalan M.H. Thamrin No. 1 Jakarta 10310,-6.8968,107.65751,RT (Roof Top),15
JAW-WJV-0059-H-B,CIBADUYUT,JL. CIBADUYUT RAYA NO. 142 RT 001 RW 005 KEL.CIBADUYUT KEC. BOJONGLOA KIDUL KOTA BANDUNG,Cibaduyut,Bojongloa Kaler,PT. PROTELINDO,Menara BCA Lt. 55 Jalan M.H. Thamrin No. 1 Jakarta 10310,-6.95623,107.59255,GF (GreenField),30
JAW-WJV-0074-H-B,SINDANG-GALIH,JL. RANCANUMPANG RT 03 RW 02 KEL.MEKARMULIA KEC. GEDEBAGE KOTA BANDUNG,Mekarmulya,Panyileukan,PT. PROTELINDO,Menara BCA Lt. 55 Jalan M.H. Thamrin No. 1 Jakarta 10310,-6.95759,107.70618,GF (GreenField),40
JAW-WJV-0078-H-B,CIDADAP,JL. KP. CIKADU RT 01 RW 11 KEL.CIUMBULEUIT KEC. CIDADAP KOTA BANDUNG,Ciumbuleuit,Cidadap,PT. PROTELINDO,Menara BCA Lt. 55 Jalan M.H. Thamrin No. 1 Jakarta 10310,-6.85765,107.60165,GF (GreenField),30
JAW-WJV-0001-T-F,SURAPATI-CIHAURGEULIS,"APOTIK LIA FARMA,JL. SURAPATI NO. 68 RT 02 RW 04.KEL.CIHAURGEULIS KEC. CIBEUNYING KALER,BANDUNG,JAWA BARAT
,CIHAURGEULIS,CIBEUNYING",Cihaurgeulis,Cibeunying Kaler,PT. PROTELINDO,Menara BCA Lt. 55 Jalan M.H. Thamrin No. 1 Jakarta 10310,-6.90006,107.62831,RT (Roof Top),6
JAW-WJV-0079-H-B,CIPADUNG-KIDUL-PANYILEUKAN,JL. ANYELIR I NO. 22 RT 04 RW 12 KEL.CIPADUNG KIDUL KEC. PANYILEUKAN KOTA BANDUNG,Cipadung Kidul,Panyileukan,PT. PROTELINDO,Menara BCA Lt. 55 Jalan M.H. Thamrin No. 1 Jakarta 10310,-6.94351,107.70853,GF (GreenField),30
JAW-WJV-0083-H-B,BOJONG-LOA-KIDUL,GG. GAGAK HANDOKO NO. 66/198 B RT 04 RW 01 KEL.SITUSAEUR KEC. BOJONGLOA KIDUL KOTA BANDUNG,Situsaeur,Bojongloa Kidul,PT. PROTELINDO,Menara BCA Lt. 55 Jalan M.H. Thamrin No. 1 Jakarta 10310,-6.93353,107.5976,RT (Roof Top),25
JAW-WJV-0089-H-B,CIJAURA,JL. CIJAWURA GIRANG RAYA RT 01 RW 014 KEL.SEKEJATI KEC. BUAHBATU KOTA BANDUNG,Sekejati,Buahbatu,PT. PROTELINDO,Menara BCA Lt. 55 Jalan M.H. Thamrin No. 1 Jakarta 10310,-6.94417,107.64861,RT (Roof Top),30.4
JAW-WJV-0080-H-B,A-YANI-CIKUTRA,JL. JEND. AHMAD YANI NO. 535 A RT 01 RW 01 KEL.CIKUTRA KEC. CIBEUNYING KIDUL KOTA BANDUNG,Cikutra,Cibeunying Kidul,PT. PROTELINDO,Menara BCA Lt. 55 Jalan M.H. Thamrin No. 1 Jakarta 10310,-6.90915,107.64143,RT (Roof Top),20
JAW-WJV-0098-H-B,MARGASUKA-BABAKAN,JL. CIBOLERANG KAWASAN 45 RT 04 RW 07 KEL.MARGASUKA KEC. BABAKAN CIPARAY KOTA BANDUNG,Margasuka,Babakan Ciparay,PT. PROTELINDO,Menara BCA Lt. 55 Jalan M.H. Thamrin No. 1 Jakarta 10310,-6.95566,107.57522,GF (GreenField),30
JAW-WJV-0311-H-P,KIARACONDONG-KEBON-GEDANG,JL. KIARACONDONG 176 RT 07 RW 04 KEL.KEBON GEDANG KEC. BATUNUNGGAL KOTA BANDUNG,Kebon Gedang,Batununggal,PT. PROTELINDO,Menara BCA Lt. 55 Jalan M.H. Thamrin No. 1 Jakarta 10310,-6.92684,107.64432,RT (Roof Top),25
JAW-WJV-0028-T-B,BDG972-/-SUKAMULYA-SUKAJADI,"JL. SUKAGALIH NO. 70 RT 03 RW 07 KEL.CIPEDES, KEC. SUKAJADI KOTA BANDUNG",Cipedes,Sukajadi,PT. PROTELINDO,Menara BCA Lt. 55 Jalan M.H. Thamrin No. 1 Jakarta 10310,-6.89247,107.59257,RT (Roof Top),15
JAW-WJV-0193-H-B,CINAMBO,JL. KOMP. CINAMBO INDAH RT. 05 RW. 05,-,Cinambo,PT. PROTELINDO,Menara BCA Lt. 55 Jalan M.H. Thamrin No. 1 Jakarta 10310,-6.92795,107.68994,GF (GreenField),30
JAW-WJV-0085-H-B,BANGBAYANG-REGENSI-DAGO,JL. KOMP. BANGBAYANG KAV. B NO. 1 RT 01 RW 07 KEL.DAGO KEC. COBLONG KOTA BANDUNG,Dago,Coblong,PT. PROTELINDO,Menara BCA Lt. 55 Jalan M.H. Thamrin No. 1 Jakarta 10310,-6.88096,107.61619,RT (Roof Top),12
JAW-WJV-0195-H-B,CIJAURA-GIRANG,"JL. CIJAWURA GIRANG II/3 RT.02 RW. 14, KEL.SEKEJATI, KEC. BUABATU KOTA BANDUNG",Sekejati,Buahbatu,PT. PROTELINDO,Menara BCA Lt. 55 Jalan M.H. Thamrin No. 1 Jakarta 10310,-6.94847,107.647,RT (Roof Top),12
JAW-WJV-0005-H-F,MARANATHA,JL.  PROF. DRG. SURYA SUMANTRI NO. 60 B RT 01 RW 01 KEL.SUKAGALIH KEC. SUKAJADI KOTA BANDUNG,Sukagalih,Sukajadi,PT. PROTELINDO,Menara BCA Lt. 55 Jalan M.H. Thamrin No. 1 Jakarta 10310,-6.88737,107.58171,RT (Roof Top),20
JAW-WJV-0301-X-B,3G_NEGLASARI-HASAN-MUSTOFA,JL. P.H.H MUSTOPA NO. 85 RT 07 RW 02 KEL.SUKAPADA KEC. CIBEUNYING KIDUL KOTA BANDUNG,Sukapada,Cibeunying Kidul,PT. PROTELINDO,Menara BCA Lt. 55 Jalan M.H. Thamrin No. 1 Jakarta 10310,-6.90015,107.64614,RT (Roof Top),15
JAW-WJV-0300-X-B,3G_WIRANTAAHMADYANI,JL. JEND. AHMAD YANI NO. 435 RT 01 RW 02 KEL.CICADAS KEC. CIBEUNYING KIDUL KOTA BANDUNG,Cicadas,Cibeunying Kidul,PT. PROTELINDO,Menara BCA Lt. 55 Jalan M.H. Thamrin No. 1 Jakarta 10310,-6.91052,107.63944,RT (Roof Top),12
JAW-WJV-0299-X-B,3G_ISTANADAGO,"JL. ISTANA DAGO ASRI RUKO NO. 2A RT 06 RW 09 KEL.DAGO, KEC. COBLONG, KOTA BANDUNG",Dago,Coblong,PT. PROTELINDO,Menara BCA Lt. 55 Jalan M.H. Thamrin No. 1 Jakarta 10310,-6.87859,107.616,RT (Roof Top),12
JAW-WJV-0306-X-B,3G_ABCBANCEUYBANDUNG,"JL. BANCEUY GG. SUNIARAJA NO. 21 RT 02 RW 02, KEL.BRAGA, KEC. SUMUR BANDUNG KOTA BANDUNG",Braga,Sumur Bandung,PT. PROTELINDO,Menara BCA Lt. 55 Jalan M.H. Thamrin No. 1 Jakarta 10310,-6.91849,107.60511,RT (Roof Top),12
JAW-WJV-0311-X-B,3G_CISARANTENINDAHARCAMANIK,JL. KOMP. CISARANTEN INDAH NO. 46/170 RT 03 RW 01 KEL.CISARANTEN KULON KEC. ARCAMANIK KOTA BANDUNG,Cisaranten Kulon,Arcamanik,PT. PROTELINDO,Menara BCA Lt. 55 Jalan M.H. Thamrin No. 1 Jakarta 10310,-6.91952,107.68416,GF (GreenField),20
JAW-WJV-0303-X-B,3G_BUMI-PAGELARAN-INDAH,JL. SUKAMAJU RT 03 RW 05 KEL.CIPADUNG KULON KEC. PANYILEUKAN KOTA BANDUNG,Cipadung Kulon,Panyileukan,PT. PROTELINDO,Menara BCA Lt. 55 Jalan M.H. Thamrin No. 1 Jakarta 10310,-6.92223,107.7045,GF (GreenField),25
JAW-WJV-0304-X-B,3G_GARUDA-NURTANIO,"JL. CIROYOM, RT 01 RW 02, KOTA BANDUNG, WEST JAVA
,DUNGUS CARIANG,ANDIR",Dunguscariang,Andir,PT. PROTELINDO,Menara BCA Lt. 55 Jalan M.H. Thamrin No. 1 Jakarta 10310,-6.90896,107.57886,RT (Roof Top),12
JAW-WJV-0316-X-B,3G-ASMIPUNGKUR,JL. PUNGKUR NO. 94 RT 05 RW 03 KEL.PUNGKUR KEC. REGOL KOTA BANDUNG,Pungkur,Regol,PT. PROTELINDO,Menara BCA Lt. 55 Jalan M.H. Thamrin No. 1 Jakarta 10310,-6.92853,107.609,RT (Roof Top),12
JAW-WJV-0336-X-B,HOLIS-CIGONDEWAH-KALER,JL. CICUKANG NO. 26 RT 01 RW 08 KEL.CIGONDEWAH KALER KEC. BANDUNG KULON KOTA BANDUNG,Cigondewah Kaler,Bandung Kulon,PT. PROTELINDO,Menara BCA Lt. 55 Jalan M.H. Thamrin No. 1 Jakarta 10310,-6.93684,107.56809,GF (GreenField),30
JAW-WJV-0221-H-B,ANDIR,JL. KEBONJATI NO. 254 RT 01 RW 03 KEL.CIROYOM KEC. ANDIR KOTA BANDUNG,Ciroyom,Andir,PT. PROTELINDO,Menara BCA Lt. 55 Jalan M.H. Thamrin No. 1 Jakarta 10310,-6.91625,107.59195,RT (Roof Top),12
JAW-WJV-0305-X-B,3G_MESJIDBAITUSAMENESBANDUNG,"JL. SUKABUMI DALAM NO. 14B/123 RT 008/006 KEL.KACAPIRING KEC. BATUNUNGGAL KOTA BANDUNG
,KACAPIRING,BATUNUNGGAL",Kacapiring,Batununggal,PT. PROTELINDO,Menara BCA Lt. 55 Jalan M.H. Thamrin No. 1 Jakarta 10310,-6.91764,107.63672,RT (Roof Top),12
JAW-WJV-0312-X-B,3G_ANTAPANIMAS,JL. PERMATA KAWALUYAAN D-6 RT 003 RW 004 KEL.JATISARI KEC. BUAHBATU KOTA BANDUNG,Jatisari,Buahbatu,PT. PROTELINDO,Menara BCA Lt. 55 Jalan M.H. Thamrin No. 1 Jakarta 10310,-6.92993,107.66256,GF (GreenField),20
JAW-WJV-0232-H-B,DIPATIUKUR-LEBAKGEDE,JL. DIPATIUKUR NO. 26 E RT 04 RW 08 KEL.LEBAKGEDE KEC. COBLONG KOTA BANDUNG,Lebak Gede,Coblong,PT. PROTELINDO,Menara BCA Lt. 55 Jalan M.H. Thamrin No. 1 Jakarta 10310,-6.89713,107.61588,RT (Roof Top),12
JAW-WJV-0229-H-B,HOTEL-NAVAL,"HOTEL NAVAL JL SUKAJADI NO. 180 RT 08 RW 02, KEL.PASTEUR, KEC. SUKAJADI, KOTA BANDUNG
,PASTEUR,SUKAJADI",Pasteur,Sukajadi,PT. PROTELINDO,Menara BCA Lt. 55 Jalan M.H. Thamrin No. 1 Jakarta 10310,-6.88489,107.59686,RT (Roof Top),6
JAW-WJV-0233-H-B,PUNGKUR,"JL. MOCH. RAMDHAN NO. 5 RT 01 / 03 KEL.ANCOL KEC REGOL
,ANCOL,REGOL",Ancol,Regol,PT. PROTELINDO,Menara BCA Lt. 55 Jalan M.H. Thamrin No. 1 Jakarta 10310,-6.93298,107.6149,GF (GreenField),12
JAW-WJV-0123-I-B,03BDG055-/-CIWASTRA,JL. MARGASARI NO. 221A RT 04 RW 10 KEL.MARGASARI KEC. BUAHBATU KOTA BANDUNG,Margasari,Buahbatu,PT. PROTELINDO,Menara BCA Lt. 55 Jalan M.H. Thamrin No. 1 Jakarta 10310,-6.95788,107.65998,GF (GreenField),43
JAW-WJV-0334-X-B,KEBON-KAWUNG,JL. CICENDO NO. 19 A RT 04 RW 05 KEL.PASIRKALIKI KEC. CICENDO KOTA BANDUNG,Pasirkaliki,Cicendo,PT. PROTELINDO,Menara BCA Lt. 55 Jalan M.H. Thamrin No. 1 Jakarta 10310,-6.91078,107.60358,GF (GreenField),30
JAW-WJV-0366-X-B,TATA-NATANEGARA,KOMPLEK ISTANA PASTEUR REGENCY RT 05 RW 06 KEL.SUKARAJA KEC. CICENDO KOTA BANDUNG,Sukaraja,Cicendo,PT. PROTELINDO,Menara BCA Lt. 55 Jalan M.H. Thamrin No. 1 Jakarta 10310,-6.89108,107.57556,RT (Roof Top),12
JAW-WJV-0972-H-P,KEBONLEGA-BOJONGLOA,JL. LEUWISARI X NO. 28 RT 01 RW 08 KEL.KEBONLEGA KEC. BOJONGLOA KIDUL KOTA BANDUNG,Kebon Lega,Bojongloa Kidul,PT. PROTELINDO,Menara BCA Lt. 55 Jalan M.H. Thamrin No. 1 Jakarta 10310,-6.94603,107.59837,RT (Roof Top),12
JAW-WJV-0973-H-P,JALAN-TERUSAN-PASIRKOJA,"JL. TERUSAN PASIRKOJA RT 01 RW 07, KEL.BABAKAN, KEC. BABAKAN CIPARAY KOTA BANDUNG",Babakan,Babakan Ciparay,PT. PROTELINDO,Menara BCA Lt. 55 Jalan M.H. Thamrin No. 1 Jakarta 10310,-6.93035,107.57706,RT (Roof Top),12
JAW-WJV-0974-H-P,BANDUNG-KULON,JL. TERUSAN SURYANI NO. 30 RT 001 RW 003 KEL.WARURG MUNCANG KEC. BANDUNG KULON KOTA BANDUNG,Warung Muncang,Bandung Kulon,PT. PROTELINDO,Menara BCA Lt. 55 Jalan M.H. Thamrin No. 1 Jakarta 10310,-6.92371,107.5798,RT (Roof Top),12
JAW-WJV-0975-H-P,KRASAK-BARAT-KEBON-LEGA,JL. KARASAK BARAT NO. 5B RT 01 RW 09 KEL.KEBONLEGA KEC. BOJONGLOA KIDUL KOTA BANDUNG,Kebon Lega,Bojongloa Kidul,PT. PROTELINDO,Menara BCA Lt. 55 Jalan M.H. Thamrin No. 1 Jakarta 10310,-6.94878,107.604,RT (Roof Top),9
JAW-WJV-0976-H-P,ARJUNA-CICENDO,JL. ARJUNA NO. 15 RT 002 RW 008 KEL.ARJUNA KEC. CICENDO KOTA BANDUNG,Arjuna,Cicendo,PT. PROTELINDO,Menara BCA Lt. 55 Jalan M.H. Thamrin No. 1 Jakarta 10310,-6.91016,107.59084,RT (Roof Top),12
JAW-WJV-0977-H-P,KAMPUNG-ARANG-COBLONG,GG. GAGAK DALAM / KP. KARANG ASIH RT 02 RW 13 KEL.SADANGSERANG KEC. COBLONG KOTA BANDUNG,Sadang Serang,Coblong,PT. PROTELINDO,Menara BCA Lt. 55 Jalan M.H. Thamrin No. 1 Jakarta 10310,-6.895,107.623,RT (Roof Top),12
JAW-WJV-0981-H-P,HOTEL-AMIGOS-CIBOGO,JL. CIBOGO RT 01 RW 05 KEL.SUKAWARNA KEC. SUKAJADI KOTA BANDUNG,Sukawarna,Sukajadi,PT. PROTELINDO,Menara BCA Lt. 55 Jalan M.H. Thamrin No. 1 Jakarta 10310,-6.89015,107.57855,RT (Roof Top),12
JAW-WJV-0978-H-P,HOTEL-CITARUM,JL. CITARUM NO. 16 RT.001 RW. 003 KEL.CIHAPIT KEC. BANDUNG WETAN KOTA BANDUNG PROVINSI JAWA BARAT 429521,Cihapit,Bandung Wetan,PT. PROTELINDO,Menara BCA Lt. 55 Jalan M.H. Thamrin No. 1 Jakarta 10310,-6.903,107.624,RT (Roof Top),6
JAW-WJV-0236-H-B,BABAKAN-ASIH,JL. K. H. WAHID HASYIM / KOPO NO. 218 RT 01 RW 04 KEL.BABAKAN ASIH KEC. BOJONGLOA KALER KOTA BANDUNG,Babakan Asih,Bojongloa Kaler,PT. PROTELINDO,Menara BCA Lt. 55 Jalan M.H. Thamrin No. 1 Jakarta 10310,-6.93652,107.59518,RT (Roof Top),25
JAW-WJV-0298-X-B,3G_TPUMUSLIMINCIBURUY,"BBK. CISEUREUH TIMUR NO. 8/4 RT 003 RW 007, DESA CISEUREUH, KEC. REGOL,CISEUREUH,REGOL",Ciseureuh,Regol,PT. PROTELINDO,Menara BCA Lt. 55 Jalan M.H. Thamrin No. 1 Jakarta 10310,-6.95644,107.61341,RT (Roof Top),12
JAW-WJV-0239-H-B,CISITU-LAMA,JL. CISITU LAMA I NO. 4 RT 06 RW 11 KEL.DAGO KEC. COBLONG KOTA BANDUNG,Dago,Coblong,PT. PROTELINDO,Menara BCA Lt. 55 Jalan M.H. Thamrin No. 1 Jakarta 10310,-6.88232,107.61216,RT (Roof Top),12
JAW-WJV-0260-H-B,HOLIS,"BLOK KASUR RT 003 RW 005 KEL./DESA CIGONDEWAH KIDUL KEC BANDUNG KULON KOTA BANDUNG
,CIGONDEWAH KIDUL,BANDUNG KULON",Cigondewah Kaler,Bandung Kulon,PT. PROTELINDO,Menara BCA Lt. 55 Jalan M.H. Thamrin No. 1 Jakarta 10310,-6.94309,107.56039,RT (Roof Top),25
JAW-WJV-0068-T-B,BDGN-186-(BTS-HOTEL),JL. PASAR SINDANGLAYA II RT 01 RW 01 KEL.CISARANTEN BINA HARAPAN KEC. ARCAMANIK KOTA BANDUNG,Cisaranten Bina Harapan,Arcamanik,PT. PROTELINDO,Menara BCA Lt. 55 Jalan M.H. Thamrin No. 1 Jakarta 10310,-6.92941,107.68184,GF (GreenField),30
JAW-WJV-0079-T-B,CILENGKRANG-CMBTNAGROGUJ,"KP.SEKEBURUY RT.004 RW.006 KEL.PASIRWANGI KEC.UJUNGBERUNG KOTAMADYA BANDUNG
JAWA BARAT,PASIRWANGI,UJUNGBERUNG",Pasirwangi,Ujungberung,PT. PROTELINDO,Menara BCA Lt. 55 Jalan M.H. Thamrin No. 1 Jakarta 10310,-6.89754,107.70868,GF (GreenField),30
JAW-WJV-0073-T-B,JL.MANGLAYANG,JL. CIGAGAK RT 006 RW 014 KEL.CIPADUNG KEC. CIBIRU KOTA BANDUNG,Cipadung,Cibiru,PT. PROTELINDO,Menara BCA Lt. 55 Jalan M.H. Thamrin No. 1 Jakarta 10310,-6.92364,107.71581,GF (GreenField),25
JAW-WJV-0205-T-B,STO-CIJAURA-MARGAWANGI,JL. CIJAWURA HILIR (GG. 3) RT 006 RW 012 KEL.CIJAWURA KEC. BUAHBATU KOTA BANDUNG,Cijawura,Buahbatu,PT. PROTELINDO,Menara BCA Lt. 55 Jalan M.H. Thamrin No. 1 Jakarta 10310,-6.96375,107.65913,RT (Roof Top),20
JAW-WJV-0331-H-B,KEBONLEGA-KOPO,JL. KOPO NO. 367 RT 001 RW 007 KEL.KEBONLEGA KEC. BOJONGLOA KIDUL KOTA BANDUNG,Kebon Lega,Bojongloa Kidul,PT. PROTELINDO,Menara BCA Lt. 55 Jalan M.H. Thamrin No. 1 Jakarta 10310,-6.94633,107.59,RT (Roof Top),12
JAW-WJV-0237-T-B,PJU24-GORPAJAJARAN,"JL. H. MESTI NO. 36/6B RT.04/06 KEL.PASIR KALIKI KEC. CICENDO KOTA BANDUNG PROP. JAWA BARAT,PASIR KALIKI,CICENDO",Pasirkaliki,Cicendo,PT. PROTELINDO,Menara BCA Lt. 55 Jalan M.H. Thamrin No. 1 Jakarta 10310,-6.90997,107.6016,RT (Roof Top),12
JAW-WJV-0367-H-B,SEKELOA-TIMUR,"JL. SEKEL.OA TIMUR NO. 66 / 52B RT.03/03 KEL.SEKEL.OA KEC. COBLONG KOTA BANDUNG JABAR,SEKEL.OA,COBLONG",Sekeloa,Coblong,PT. PROTELINDO,Menara BCA Lt. 55 Jalan M.H. Thamrin No. 1 Jakarta 10310,-6.89096,107.623,RT (Roof Top),11
JAW-WJV-0361-H-B,BATUNUNGGAL-PERMAI,JL. BATUNUNGGAL PERMAI I NO. 87 RT 008 RW 001 KEL.BATUNUNGGAL KEC. BANDUNG KIDUL KOTA BANDUNG,Batununggal,Bandung Kidul,PT. PROTELINDO,Menara BCA Lt. 55 Jalan M.H. Thamrin No. 1 Jakarta 10310,-6.95696,107.6305,RT (Roof Top),12
JAW-WJV-0062-T-B,BDGN-137-WBBMC-SITE_7796,"JL. SAUYUNAN MAS 5 NO. 1 RT.02 KEL.CIBADUYUT KEC. BOJONG KOA KIDUL KOTA BANDUNG JAWA BARAT,CIBADUYUT ,BOJONG",Cibaduyut,Bojongloa Kidul,PT. PROTELINDO,Menara BCA Lt. 55 Jalan M.H. Thamrin No. 1 Jakarta 10310,-6.95165,107.59041,GF (GreenField),20
JAW-WJV-0065-T-B,MARGAHAYU_MERCURI,JL. MERKURI TENGAH X NO. 2 RT 07 RW 08 KEL.MANJAHLEGA KEC. RANCASARI KOTA BANDUNG,Majahlega,Rancasari,PT. PROTELINDO,Menara BCA Lt. 55 Jalan M.H. Thamrin No. 1 Jakarta 10310,-6.94716,107.66663,RT (Roof Top),12
JAW-WJV-0143-T-B,PALEDANG-PSRWNGIUBER,GG. KP. BABAKAN TEUREUP RT 04 RW 10 KEL.PASIRJATI KEC. UJUNGBERUNG KOTA BANDUNG,Pasirjati,Ujungberung,PT. PROTELINDO,Menara BCA Lt. 55 Jalan M.H. Thamrin No. 1 Jakarta 10310,-6.90431,107.71004,GF (GreenField),25
JAW-WJV-0195-T-B,CIKUTRABARU-ASRMPUSSENIF,JL. SUKASENANG NO. 3 RT 6 RW 15 KEL.CIKUTRA KEC. CIBEUNYING KIDUL KOTA BANDUNG,Cikutra,Cibeunying Kidul,PT. PROTELINDO,Menara BCA Lt. 55 Jalan M.H. Thamrin No. 1 Jakarta 10310,-6.89927,107.64027,RT (Roof Top),12
JAW-WJV-0208-T-B,HTLBUMIASIH-MENGGER,"JL. SUKA ATI RT.05/07 KEL.PASIR LUYU KEC. REGOL KOTA BANDUNG PROP. JAWA BARAT,PASIR LUYU,REGOL",Pasir Luyu,Regol,PT. PROTELINDO,Menara BCA Lt. 55 Jalan M.H. Thamrin No. 1 Jakarta 10310,-6.95333,107.62116,RT (Roof Top),12
JAW-WJV-0213-T-B,CISARANTEN-GEDEBAGE,"JL. RUMAH SAKIT NO. 118 RT. 002/RW. 007,BABAKAN PENGHULU,CINAMBO",Babakan Penghulu,Cinambo,PT. PROTELINDO,Menara BCA Lt. 55 Jalan M.H. Thamrin No. 1 Jakarta 10310,-6.93104,107.69382,GF (GreenField),30
JAW-WJV-0322-H-B,SRIMAHI,JL. SRIMAHI III NO. 1 RT 06 RW 01 KEL.ANCOL KEC. REGOL KOTA BANDUNG,Ancol,Regol,PT. PROTELINDO,Menara BCA Lt. 55 Jalan M.H. Thamrin No. 1 Jakarta 10310,-6.93759,107.617,RT (Roof Top),12
JAW-WJV-0328-H-B,BABAKAN-CARINGIN,"BABAKAN CARINGIN RT. 004 / RW. 004 KEL.SUKAGALIH KEC. SUKAJADI
,SUKAGALIH,SUKAJADI",Sukagalih,Sukajadi,PT. PROTELINDO,Menara BCA Lt. 55 Jalan M.H. Thamrin No. 1 Jakarta 10310,-6.89257,107.5845,RT (Roof Top),12
JAW-WJV-0333-H-B,CIDADAP-CIUMBULEUIT,"JL. CISITU INDAH VL NO. 181 RT.001/004 KEL.DAGO KEC. COBLONG KOTA BANDUNG,DAGO,COBLONG",Dago,Coblong,PT. PROTELINDO,Menara BCA Lt. 55 Jalan M.H. Thamrin No. 1 Jakarta 10310,-6.87322,107.614,RT (Roof Top),12
JAW-WJV-0339-H-B,LEDENG-CIDADAP,"JL. SERSAN SURIP NO. 38/169A RT.002/003 KEL.LEDENG KEC.CIDADAP KOTA BANDUNG,LEDENG,CIDADAP",Ledeng,Cidadap,PT. PROTELINDO,Menara BCA Lt. 55 Jalan M.H. Thamrin No. 1 Jakarta 10310,-6.86144,107.596,RT (Roof Top),12
JAW-WJV-0346-H-B,TAMAN-DAGO-ASRI,JL. CISITU INDAH IV RT 004 RW 004 KEL.DAGO KEC. COBLONG KOTA BANDUNG,Dago,Coblong,PT. PROTELINDO,Menara BCA Lt. 55 Jalan M.H. Thamrin No. 1 Jakarta 10310,-6.87676,107.61417,GF (GreenField),27
JAW-WJV-0382-H-B,CUKANG-KAWUNG,JL. CUKANG KAWUNG NO. 70 RT 01 RW 14 KEL.CIGADUNG KEC. CIBEUNYING KALER KOTA BANDUNG,Cigadung,Cibeunying Kaler,PT. PROTELINDO,Menara BCA Lt. 55 Jalan M.H. Thamrin No. 1 Jakarta 10310,-6.88644,107.63381,RT (Roof Top),12
JAW-WJV-0393-H-B,BUANASARI,JL. BUANASARI IV RT 08 RW 04 KEL.KUJANGSARI KEC. BANDUNG KIDUL KOTA BANDUNG,Kujangsari,Bandung Kidul,PT. PROTELINDO,Menara BCA Lt. 55 Jalan M.H. Thamrin No. 1 Jakarta 10310,-6.96514,107.6432,GF (GreenField),40
JAW-WJV-0326-H-B,REGOL-CIGERELENG,"JL. BUAH BATU NO. 184, RT001/RW001, KEL.CIJAGRA, KEC. LENGKONG, KAB. BANDUNG",Cijagra,Lengkong,PT. PROTELINDO,Menara BCA Lt. 55 Jalan M.H. Thamrin No. 1 Jakarta 10310,-6.93875,107.62242,RT (Roof Top),12
JAW-WJV-0144-T-B,RANCAKEDAL-BOJONGKONENG,"JL. AWILIGAR RT01/RW024,KOTA BANDUNG, PROVINSI JAWABARAT
,CIMENYAN,CIMENYAN",-,-,PT. PROTELINDO,Menara BCA Lt. 55 Jalan M.H. Thamrin No. 1 Jakarta 10310,-6.87731,107.6398,GF (GreenField),28
JAW-WJV-0206-T-B,JLMANJAHLEGA-RANCABOLANGIDH-(BTS-HOTEL),JL. SATURNUS TENGAH NO. 2 RT 004 RW 015 KEL.MANJAHLEGA KEC. RANCASARI KOTA BANDUNG,Majahlega,Rancasari,PT. PROTELINDO,Menara BCA Lt. 55 Jalan M.H. Thamrin No. 1 Jakarta 10310,-6.9525,107.666,RT (Roof Top),12
JAW-WJV-0342-H-B,SUKAMISKIN,JL. A. H. NASUTION NO. 87 RT 004 RW 006 KEL.KARANG PAMULANG KEC. MANDALAJATI KOTA BANDUNG,Karang Pamulang,Mandalajati,PT. PROTELINDO,Menara BCA Lt. 55 Jalan M.H. Thamrin No. 1 Jakarta 10310,-6.90722,107.672,RT (Roof Top),12
JAW-WJV-0364-H-B,CIGADUNG,"JL. CIGADUNG RAYA TENGAH NO. 66 RT.02/06 KEL.CIGADUNG KEC. CIBEUNYING KALER KOTA BANDUNG,CIGADUNG ,CIBEUNYING",Cigadung,Cibeunying Kaler,PT. PROTELINDO,Menara BCA Lt. 55 Jalan M.H. Thamrin No. 1 Jakarta 10310,-6.88324,107.626,GF (GreenField),12
JAW-WJV-0403-H-B,MALABAR,"JL,KAREES NO. 36/118-D RT.01/04 KEL.SAMOJA KEC. BATUNUNGGAL KOTA BANDUNG JAWA BARAT,SAMOJA,BATUNUNGGAL",Samoja,Batununggal,PT. PROTELINDO,Menara BCA Lt. 55 Jalan M.H. Thamrin No. 1 Jakarta 10310,-6.92143,107.62788,GF (GreenField),12
JAW-WJV-0091-T-B,CILUNCAT-BANJARAN,"JL. DANGDEUR - CIHERANG RT.001 RW.10,KIANG,BANJARAN",-,-,PT. PROTELINDO,Menara BCA Lt. 55 Jalan M.H. Thamrin No. 1 Jakarta 10310,-7.04366,107.563,GF (GreenField),40
JAW-WJV-0064-T-B,KAUMKIDUL-STO-UJUNGBERUNG,"JL NEGLASARI NO. 2 RT 01 RW 03 KEL.PASANGGRAHAN KEC. UJUNG BERUNG BANDUNG JAWA BARAT
,PASANGGRAHAN, UJUNG BERUNG",Pasanggrahan,Ujungberung,PT. PROTELINDO,Menara BCA Lt. 55 Jalan M.H. Thamrin No. 1 Jakarta 10310,-6.91893,107.70661,GF (GreenField),12
JAW-WJV-0365-H-B,TITIRAN-SADANG,"JL. TITIRAN NO. 19 KEL.SADANG SERANG KEC. COBLONG KOTA BANDUNG JAWA BARAT,SADANG SERANG,COBLONG",Sadang Serang,Coblong,PT. PROTELINDO,Menara BCA Lt. 55 Jalan M.H. Thamrin No. 1 Jakarta 10310,-6.89889,107.62,GF (GreenField),25
JAW-WJV-0381-H-B,LEUWIPANJANG,"JL. LEUWI ANYAR L NO. 33 RT.006/004 KEL.SITUSAEUR KEC.BOJONGLOA KIDUL KOTA BANDUNG ,SITUSEUR,BOJONGLOA KIDUL",Situsaeur,Bojongloa Kidul,PT. PROTELINDO,Menara BCA Lt. 55 Jalan M.H. Thamrin No. 1 Jakarta 10310,-6.94511,107.59395,GF (GreenField),12
JAW-WJV-0057-T-B,BDGN-179-(SHIFT),"JL. WIRA ANGUN ANGUN NO. 15 RT 02 RW 02, KEL.CITARUM KEC. BANDUNG WETAN KOTA BANDUNG PROPINSI JAWA BARAT",Citarum,Bandung Wetan,PT. PROTELINDO,Menara BCA Lt. 55 Jalan M.H. Thamrin No. 1 Jakarta 10310,-6.90443,107.6141,GF (GreenField),12
JAW-WJV-0210-T-B,PJU24-GORLODAYA,JL. K. H. ACHMAD DAHLAN NO. 56 RT 02 RW 010 KEL.MALABAR KEC. LENGKONG KOTA BANDUNG,Malabar,Lengkong,PT. PROTELINDO,Menara BCA Lt. 55 Jalan M.H. Thamrin No. 1 Jakarta 10310,-6.93092,107.62075,RT (Roof Top),12
JAW-WJV-0321-H-B,UNISBA-2,JL. PURNAWARMAN NO. 59 KEL.TAMANSARI KEC. BANDUNG WETAN KOTA BANDUNG,Tamansari,Bandung Wetan,PT. PROTELINDO,Menara BCA Lt. 55 Jalan M.H. Thamrin No. 1 Jakarta 10310,-6.9043,107.61,GF (GreenField),12
JAW-WJV-0370-H-B,SEKEJATI,"JL.  MARGAHAYU RAYA BARAT BLOK L2 NO. 125A KEL.SEKEJATI, KEC. BUAH BATU, KOTA BANDUNG",Sekejati,Buahbatu,PT. PROTELINDO,Menara BCA Lt. 55 Jalan M.H. Thamrin No. 1 Jakarta 10310,-6.94978,107.658,GF (GreenField),20
JAW-WJV-0391-H-B,RANCAKALONG-CIGADUNG,JL. RANCAKENDAL NO. 1B RT. 05 RW. 01 KEL.CIGADUNG KEC. CIBEUNYING KALER KOTA BANDUNG,Cigadung,Cibeunying Kaler,PT. PROTELINDO,Menara BCA Lt. 55 Jalan M.H. Thamrin No. 1 Jakarta 10310,-6.87574,107.62793,GF (GreenField),40
JAW-WJV-0424-H-B,CIMINDI-CEMPAKA,JL. RAYA CIMINDI GG H SAID NO. 29 RT. 03 RW. 05 KEL.CEMPAKA KEC. ANDIR KOTA BANDUNG,Cempaka,Andir,PT. PROTELINDO,Menara BCA Lt. 55 Jalan M.H. Thamrin No. 1 Jakarta 10310,-6.89798,107.56268,GF (GreenField),12
JAW-WJV-0343-H-B,SUKAWARNA-SUKAJADI,JL. CIBOGO ATAS NO. 136 RT. 003 RW. 003 KEL.SUKAWARNA KEC. SUKAJADI KOTA BANDUNG JAWA BARAT,-,-,PT. PROTELINDO,Menara BCA Lt. 55 Jalan M.H. Thamrin No. 1 Jakarta 10310,-6.88451,107.5756,GF (GreenField),12
03BDG001,BBC,-,-,Sumur Bandung,PT.INDOSAT Tbk.,"Gedung Indosat, Jalan Medan Merdeka Barat, No. 21, Jakarta 10110",-6.921944,107.616111,RT (Roof Top),10
03BDG003,SUKASARI,SUKASARI,Sukarasa,Sukasari,PT.INDOSAT Tbk.,"Gedung Indosat, Jalan Medan Merdeka Barat, No. 21, Jakarta 10110",-6.8725,107.581667,GF (GreenField),50
03BDG004,KOPO,BABAKAN CIPARAY,Margasuka,Babakan Ciparay,PT.INDOSAT Tbk.,"Gedung Indosat, Jalan Medan Merdeka Barat, No. 21, Jakarta 10110",-6.955278,107.580278,GF (GreenField),55
03BDG006,CISARANTEN,ARCAMANIK,Cisaranten Kulon,Arcamanik,PT.INDOSAT Tbk.,"Gedung Indosat, Jalan Medan Merdeka Barat, No. 21, Jakarta 10110",-6.928889,107.681389,GF (GreenField),55
03BDG007,IMPERIUM,CICENDO,Pasirkaliki,Cicendo,PT.INDOSAT Tbk.,"Gedung Indosat, Jalan Medan Merdeka Barat, No. 21, Jakarta 10110",-6.905,107.600833,RT (Roof Top),15
03BDG009,SUKAJADI,"JL. SUKAJADI NO. 174 (HOTEL SUKAJADI), -",-,-,PT.INDOSAT Tbk.,"Gedung Indosat, Jalan Medan Merdeka Barat, No. 21, Jakarta 10110",-6.886111,107.595556,RT (Roof Top),15
03BDG011,CIPAKU,"JL. CIPAKU INDAH III NO. 9, -",-,-,PT.INDOSAT Tbk.,"Gedung Indosat, Jalan Medan Merdeka Barat, No. 21, Jakarta 10110",-6.959722,107.671111,RT (Roof Top),35
03BDG013,UJUNG_BERUNG,UJUNGBERUNG,Pasanggrahan,Ujungberung,PT.INDOSAT Tbk.,"Gedung Indosat, Jalan Medan Merdeka Barat, No. 21, Jakarta 10110",-6.929444,107.649444,GF (GreenField),70
03BDG014,KEBAKTIAN,KIARA CONDONG,Sukapura,Kiaracondong,PT.INDOSAT Tbk.,"Gedung Indosat, Jalan Medan Merdeka Barat, No. 21, Jakarta 10110",-6.914444,107.618056,GF (GreenField),40
03BDG015,AL_KAUTSAR,CIBEUNYING KALER,Merdeka,Sumur Bandung,PT.INDOSAT Tbk.,"Gedung Indosat, Jalan Medan Merdeka Barat, No. 21, Jakarta 10110",-6.900833,107.608889,RT (Roof Top),20
03BDG017,CISOKAN,"JL. YW PRAMUKHA VII, KOMPLEK PERUMAHAN PUSENIF, , -",-,-,PT.INDOSAT Tbk.,"Gedung Indosat, Jalan Medan Merdeka Barat, No. 21, Jakarta 10110",-6.916667,107.591667,GF (GreenField),40
03BDG018,KEBON_JATI,ANDIR,Ciroyom,Andir,PT.INDOSAT Tbk.,"Gedung Indosat, Jalan Medan Merdeka Barat, No. 21, Jakarta 10110",-6.918889,107.580833,GF (GreenField),40
03BDG020,KIARA_CONDONG,"JL. KIARACONDONG NO. 145 / 177,BABAKANSARI (KEBAKTIAN)",Babakan Sari,-,PT.INDOSAT Tbk.,"Gedung Indosat, Jalan Medan Merdeka Barat, No. 21, Jakarta 10110",-6.906944,107.611944,GF (GreenField),55
03BDG021,SANTOSA,BATUNUNGGAL,Gumuruh,Batununggal,PT.INDOSAT Tbk.,"Gedung Indosat, Jalan Medan Merdeka Barat, No. 21, Jakarta 10110",-6.909444,107.626389,GF (GreenField),40
03BDG022,H_ANGGREK,BANDUNG WETAN,Citarum,Bandung Wetan,PT.INDOSAT Tbk.,"Gedung Indosat, Jalan Medan Merdeka Barat, No. 21, Jakarta 10110",-6.865278,107.603889,RT (Roof Top),25
03BDG023,JL_RIAU,JL. PRAMUKA (JL. RE MARTADINATA) NO. 159 RT.01/02 (SAMPING SM,Cihapit,-,PT.INDOSAT Tbk.,"Gedung Indosat, Jalan Medan Merdeka Barat, No. 21, Jakarta 10110",-6.927222,107.605833,RT (Roof Top),25
03BDG024,CIUMBULEUIT,"WILAYAH RS. AU TK II DR. SALAMUN, JL. CIUMBULEUIT,PANGKALAN",Pangkalan Tni Au,-,PT.INDOSAT Tbk.,"Gedung Indosat, Jalan Medan Merdeka Barat, No. 21, Jakarta 10110",-6.865,107.604222,GF (GreenField),30
03BDG025,KEBON_KELAPA,"JL. PUNGKUR (JL. RD. DEWI SARTIKA) NO. 64 RT.05/03,BALONGGEDE",Balonggede,-,PT.INDOSAT Tbk.,"Gedung Indosat, Jalan Medan Merdeka Barat, No. 21, Jakarta 10110",-6.929722,107.607944,RT (Roof Top),25
03BDG027,CIPAMOKOLAN,RANCASARI,Cipamokolan,Rancasari,PT.INDOSAT Tbk.,"Gedung Indosat, Jalan Medan Merdeka Barat, No. 21, Jakarta 10110",-6.945278,107.675972,GF (GreenField),40
03BDG031,ARCAMANIK,ARCAMANIK,Sukamiskin,Arcamanik,PT.INDOSAT Tbk.,"Gedung Indosat, Jalan Medan Merdeka Barat, No. 21, Jakarta 10110",-6.907417,107.705667,GF (GreenField),40
03BDG034,DAGO_ATAS,COBLONG,Dago,Coblong,PT.INDOSAT Tbk.,"Gedung Indosat, Jalan Medan Merdeka Barat, No. 21, Jakarta 10110",-6.879722,107.612222,GF (GreenField),55
03BDG039,BRAGA,"JL. BRAGA NO. 129 (GEDUNG LANDMARK),BRAGA",Braga,Sumur Bandung,PT.INDOSAT Tbk.,"Gedung Indosat, Jalan Medan Merdeka Barat, No. 21, Jakarta 10110",-6.950278,107.648056,In Building (IBS)-DAS,20
03BDG040,BHG_PERMAI,MARGACINTA,Margasari,Buahbatu,PT.INDOSAT Tbk.,"Gedung Indosat, Jalan Medan Merdeka Barat, No. 21, Jakarta 10110",-6.95,107.647889,GF (GreenField),40
03BDG042,CIKUTRA,CIBEUNYING KALER,Neglasari,Cibeunying Kaler,PT.INDOSAT Tbk.,"Gedung Indosat, Jalan Medan Merdeka Barat, No. 21, Jakarta 10110",-6.896111,107.640833,GF (GreenField),40
03BDG044,GATSU,LENGKONG,Lingkar Selatan,Lengkong,PT.INDOSAT Tbk.,"Gedung Indosat, Jalan Medan Merdeka Barat, No. 21, Jakarta 10110",-6.926111,107.626111,GF (GreenField),40
03BDG045,NICOLE,GERLONG HILIR,Gegerkalong Hilir,Sukasari,PT.INDOSAT Tbk.,"Gedung Indosat, Jalan Medan Merdeka Barat, No. 21, Jakarta 10110",-6.871111,107.593333,RT (Roof Top),35
03BDG048,LODAYA,BOJONGLOA KIDUL,Situsaeur,Bojongloa Kidul,PT.INDOSAT Tbk.,"Gedung Indosat, Jalan Medan Merdeka Barat, No. 21, Jakarta 10110",-6.938056,107.598333,RT (Roof Top),25
03BDG049,SEKEJATI,"JL. BABAKAN JATI (KIARA CONDONG - SAMPING BORMA SWALAYAN),BI",Binong,Batununggal,PT.INDOSAT Tbk.,"Gedung Indosat, Jalan Medan Merdeka Barat, No. 21, Jakarta 10110",-6.9425,107.660833,GF (GreenField),40
03BDG050,CIGONDEWAH,BABAKAN CIPARAY,Margasuka,Babakan Ciparay,PT.INDOSAT Tbk.,"Gedung Indosat, Jalan Medan Merdeka Barat, No. 21, Jakarta 10110",-6.950556,107.564722,GF (GreenField),40
03BDG052,MITRA_PHR,CICADAS,Antapani,Antapani,PT.INDOSAT Tbk.,"Gedung Indosat, Jalan Medan Merdeka Barat, No. 21, Jakarta 10110",-6.913056,107.659722,GF (GreenField),40
03BDG053,CIPADUNG,UJUNGBERUNG,Ujungberung,Ujungberung,PT.INDOSAT Tbk.,"Gedung Indosat, Jalan Medan Merdeka Barat, No. 21, Jakarta 10110",-6.924444,107.711944,GF (GreenField),55
03BDG055,CIWASTRA,"JL. CIWASTRA(UP. JL. BUAH BATU KE CIPAMOKOLAN)RT.07/10,MARGA",Margasenang,-,PT.INDOSAT Tbk.,"Gedung Indosat, Jalan Medan Merdeka Barat, No. 21, Jakarta 10110",-6.960556,107.661389,GF (GreenField),52
03BDG056,KODRAT,BOJONGLOA KALER,Tarogong,Bojongloa Kaler,PT.INDOSAT Tbk.,"Gedung Indosat, Jalan Medan Merdeka Barat, No. 21, Jakarta 10110",-6.931188,107.590008,GF (GreenField),70
03BDG057,CIBADUYUT,BOJONGLOA KIDUL,Kebon Lega,Bojongloa Kidul,PT.INDOSAT Tbk.,"Gedung Indosat, Jalan Medan Merdeka Barat, No. 21, Jakarta 10110",-6.949444,107.594444,GF (GreenField),40
03BDG058,SUMBERSARI,"AREA GERBANG TOL PASIR KOJA,",-,-,PT.INDOSAT Tbk.,"Gedung Indosat, Jalan Medan Merdeka Barat, No. 21, Jakarta 10110",-6.931111,107.570278,GF (GreenField),40
03BDG060,PASIR_LUYU,"JL. KEMBAR TIMUR VII RT.02/07,ANCOL",Ancol,-,PT.INDOSAT Tbk.,"Gedung Indosat, Jalan Medan Merdeka Barat, No. 21, Jakarta 10110",-6.945,107.614722,GF (GreenField),42
03BDG061,BBKNCPARAY,"JL. BABAKAN CIPARAY NO. 240, BABAKAN CIPARAY",Babakan Ciparay,Babakan Ciparay,PT.INDOSAT Tbk.,"Gedung Indosat, Jalan Medan Merdeka Barat, No. 21, Jakarta 10110",-6.938611,107.582778,GF (GreenField),52
03BDG063,BUAHBATU2,"JL. SUKARNO. HATTA NO. 1, BATUNUNGGAL",Batununggal,-,PT.INDOSAT Tbk.,"Gedung Indosat, Jalan Medan Merdeka Barat, No. 21, Jakarta 10110",-6.948235,107.635301,GF (GreenField),72
03BDG064,BUAHBATU,LENGKONG,Turangga,Lengkong,PT.INDOSAT Tbk.,"Gedung Indosat, Jalan Medan Merdeka Barat, No. 21, Jakarta 10110",-6.938889,107.6275,GF (GreenField),40
03BDG065,POLDA_BDG,RANCASARI,Mekarmulya,Panyileukan,PT.INDOSAT Tbk.,"Gedung Indosat, Jalan Medan Merdeka Barat, No. 21, Jakarta 10110",-6.935556,107.694167,GF (GreenField),40
03BDG067,BUKIT_BDG,UJUNGBERUNG,Pasir Endah,Ujungberung,PT.INDOSAT Tbk.,"Gedung Indosat, Jalan Medan Merdeka Barat, No. 21, Jakarta 10110",-6.903889,107.691111,GF (GreenField),40
03BDG068,AHMAD_YANI,BATUNUNGGAL,Kacapiring,Batununggal,PT.INDOSAT Tbk.,"Gedung Indosat, Jalan Medan Merdeka Barat, No. 21, Jakarta 10110",-6.913333,107.633889,RT (Roof Top),21
03BDG069,PRKN_SAAT,RANCASARI,Cipamokolan,Rancasari,PT.INDOSAT Tbk.,"Gedung Indosat, Jalan Medan Merdeka Barat, No. 21, Jakarta 10110",-6.938941,107.669975,GF (GreenField),72
03BDG070,BABAKAN_PARIGI,RANCASARI,Cisaranten Kidul,Gedebage,PT.INDOSAT Tbk.,"Gedung Indosat, Jalan Medan Merdeka Barat, No. 21, Jakarta 10110",-6.941944,107.689444,GF (GreenField),55
03BDG072,LEDENG,SUKASARI,Isola,Sukasari,PT.INDOSAT Tbk.,"Gedung Indosat, Jalan Medan Merdeka Barat, No. 21, Jakarta 10110",-6.850556,107.594167,GF (GreenField),55
03BDG074,SADANG_SERANG,COBLONG,Sekeloa,Coblong,PT.INDOSAT Tbk.,"Gedung Indosat, Jalan Medan Merdeka Barat, No. 21, Jakarta 10110",-6.889998,107.626297,GF (GreenField),69
03BDG075,WIRAYUDA,COBLONG,Sadang Serang,Coblong,PT.INDOSAT Tbk.,"Gedung Indosat, Jalan Medan Merdeka Barat, No. 21, Jakarta 10110",-6.898889,107.62,RT (Roof Top),15
03BDG078,BABAKANJERUK,ARJASARI,Sukawarna,Sukajadi,PT.INDOSAT Tbk.,"Gedung Indosat, Jalan Medan Merdeka Barat, No. 21, Jakarta 10110",-6.885278,107.581111,RT (Roof Top),18
03BDG079,PASIR_KALIKI,SUKAJADI,Pasteur,Sukajadi,PT.INDOSAT Tbk.,"Gedung Indosat, Jalan Medan Merdeka Barat, No. 21, Jakarta 10110",-6.894722,107.5975,RT (Roof Top),20
03BDG080,CIHAMPELAS,COBLONG,Cipaganti,Coblong,PT.INDOSAT Tbk.,"Gedung Indosat, Jalan Medan Merdeka Barat, No. 21, Jakarta 10110",-6.890833,107.603889,GF (GreenField),30
03BDG081,LBAK_SILIWANGI,"JL. GANESHA NO. 03 (AREA MASJID SALMAN ITB), -",-,-,PT.INDOSAT Tbk.,"Gedung Indosat, Jalan Medan Merdeka Barat, No. 21, Jakarta 10110",-6.893889,107.611111,RT (Roof Top),20
03BDG084,ARJUNA,"JL. KOMODOR UDARA SUPADIO NO. 30 RT.09/06,HUSEIN SASTRANEGARA",Husen Sastranegara,-,PT.INDOSAT Tbk.,"Gedung Indosat, Jalan Medan Merdeka Barat, No. 21, Jakarta 10110",-6.909444,107.586111,GF (GreenField),52
03BDG086,GARDUJATI,"JL. GARDUJATI 55-61 (40181), -",-,-,PT.INDOSAT Tbk.,"Gedung Indosat, Jalan Medan Merdeka Barat, No. 21, Jakarta 10110",-6.918194,107.597886,RT (Roof Top),20
03BDG088,GUDANG_SLT,SUMUR BANDUNG,Merdeka,Sumur Bandung,PT.INDOSAT Tbk.,"Gedung Indosat, Jalan Medan Merdeka Barat, No. 21, Jakarta 10110",-6.9175,107.625556,RT (Roof Top),25
03BDG089,BBKN_TEMPE,"JL. ASTANA ANYAR NO. 132,CIBADAK",Cibadak,Astanaanyar,PT.INDOSAT Tbk.,"Gedung Indosat, Jalan Medan Merdeka Barat, No. 21, Jakarta 10110",-6.925278,107.599167,RT (Roof Top),25
03BDG090,ARJUNA_IM,CICENDO,Pasirkaliki,Cicendo,PT.INDOSAT Tbk.,"Gedung Indosat, Jalan Medan Merdeka Barat, No. 21, Jakarta 10110",-6.910278,107.598056,RT (Roof Top),21
03BDG091,HOLIS,BANDUNG KULON,Warung Muncang,Bandung Kulon,PT.INDOSAT Tbk.,"Gedung Indosat, Jalan Medan Merdeka Barat, No. 21, Jakarta 10110",-6.919444,107.576667,GF (GreenField),55
03BDG093,PUNGKUR,REGOL,Pungkur,Regol,PT.INDOSAT Tbk.,"Gedung Indosat, Jalan Medan Merdeka Barat, No. 21, Jakarta 10110",-6.929722,107.603889,RT (Roof Top),20
03BDG096,ARCAMANIK_IM,ARCAMANIK,Cisaranten Bina Harapan,Arcamanik,PT.INDOSAT Tbk.,"Gedung Indosat, Jalan Medan Merdeka Barat, No. 21, Jakarta 10110",-6.91,107.688611,GF (GreenField),52
03BDG098,CIKUTRA_IM,CIBEUNYING KIDUL,Sukapada,Cibeunying Kidul,PT.INDOSAT Tbk.,"Gedung Indosat, Jalan Medan Merdeka Barat, No. 21, Jakarta 10110",-6.900278,107.646111,GF (GreenField),52
03BDG100,SEKELOA,COBLONG,Sadang Serang,Coblong,PT.INDOSAT Tbk.,"Gedung Indosat, Jalan Medan Merdeka Barat, No. 21, Jakarta 10110",-6.887222,107.619722,GF (GreenField),52
03BDG103,RANCABOLANG,RANCASARI,Cisaranten Kidul,Gedebage,PT.INDOSAT Tbk.,"Gedung Indosat, Jalan Medan Merdeka Barat, No. 21, Jakarta 10110",-6.924139,107.698278,GF (GreenField),52
03BDG104,PANGHEGAR,PENYILEUKAN,Mekarmulya,Panyileukan,PT.INDOSAT Tbk.,"Gedung Indosat, Jalan Medan Merdeka Barat, No. 21, Jakarta 10110",-6.900167,107.634611,GF (GreenField),52
03BDG106,SINDANGLAYA,CICADAS,Karang Pamulang,Mandalajati,PT.INDOSAT Tbk.,"Gedung Indosat, Jalan Medan Merdeka Barat, No. 21, Jakarta 10110",-6.88,107.588333,GF (GreenField),55
03BDG111,ARS,JL. TERUSAN JAKARTA NO. 53 RT.01/12 GANG SUKAKARYA (BORMA ANT,Cicaheum,-,PT.INDOSAT Tbk.,"Gedung Indosat, Jalan Medan Merdeka Barat, No. 21, Jakarta 10110",-6.911944,107.649167,GF (GreenField),30
03BDG114,TAMAN-HOLIS,JL. CARINGIN RT.02 RW.09,Babakan,Babakan Ciparay,PT.INDOSAT Tbk.,"Gedung Indosat, Jalan Medan Merdeka Barat, No. 21, Jakarta 10110",-6.940278,107.570833,GF (GreenField),40
03BDG203,CIPAGANTI,SUKAJADI,Pasteur,Sukajadi,PT.INDOSAT Tbk.,"Gedung Indosat, Jalan Medan Merdeka Barat, No. 21, Jakarta 10110",-6.891111,107.599722,RT (Roof Top),35
03BDG248,NODAL-SETRASARI,SUKASARI,Sukarasa,Sukasari,PT.INDOSAT Tbk.,"Gedung Indosat, Jalan Medan Merdeka Barat, No. 21, Jakarta 10110",-6.882139,107.579083,GF (GreenField),50
03BDG257,SAWAH_KURUNG,"JL. CIATEUL NO. 122,CIATEUL",Ciateul,Regol,PT.INDOSAT Tbk.,"Gedung Indosat, Jalan Medan Merdeka Barat, No. 21, Jakarta 10110",-6.942778,107.616111,RT (Roof Top),15
03BDG334,CARINGIN,BOJONGLOA KALER,Kopo,Bojongloa Kaler,PT.INDOSAT Tbk.,"Gedung Indosat, Jalan Medan Merdeka Barat, No. 21, Jakarta 10110",-6.9424,107.5864,GF (GreenField),55
03CMI005,GT_PASTEUR,"JL. DR. DJUNDJUNAN NO. 257,TERUSAN PASTEUR",Terusan Pasteur,-,PT.INDOSAT Tbk.,"Gedung Indosat, Jalan Medan Merdeka Barat, No. 21, Jakarta 10110",-6.889722,107.573056,GF (GreenField),30
4100105,AHMAD-YANI,JL. JEND. AHMAD YANI. NO. 430 - 432 BANDUNG/KEL.KBN. WARU,-,-,PT.SAMPOERNA TELEKOMUNIKASI INDONESIA,SAMPOERNA STRATEGIC SQUARE BORTH TOWER 21 FLOOR JL. JEND. SUDIRMAN KAV . 45-46 JAKARTA,-6.91005,107.64108,RT (Roof Top),25
4100101,GRAHA-INTERNATIONAL,GEDUNG GRAHA INTERNASIONAL LT. 3A JL. ASIA AFRIKA NO.  129 BANDUNG.KEC. SUMUR BANDUNG,-,Sumur Bandung,PT.SAMPOERNA TELEKOMUNIKASI INDONESIA,SAMPOERNA STRATEGIC SQUARE BORTH TOWER 21 FLOOR JL. JEND. SUDIRMAN KAV . 45-46 JAKARTA,-6.92182,107.61572,RT (Roof Top),25
4100102,GARUDA,"JL. JEND. SUDIRMAN NO.  656, KEL.GARUDA, KEC. ANDIR, KOTA BANDUNG",Garuda,Andir,PT.SAMPOERNA TELEKOMUNIKASI INDONESIA,SAMPOERNA STRATEGIC SQUARE BORTH TOWER 21 FLOOR JL. JEND. SUDIRMAN KAV . 45-46 JAKARTA,-6.9172,107.57579,RT (Roof Top),25
1926,CIROYOM,"JL. RA BARNAS 189 B/77, KEL.DUNGUS CARIANG, KEC ANDIR - BANDUNG.",Dunguscariang,Andir,PT. XL AXIATA,Grha XL Jl. Mega Kuningan Lot. E4-7 No. 1 Kawasan Mega Kuningan Jakarta 12950,-6.91433,107.581,GF (GreenField),30
2032,RAJAWALI-TIMUR,"RAJAWALI PLAZA, JL. RAJAWALI TIMUR NO. 52 RT.04 RW.05, KEL.CIROYOM, KEC. ANDIR - BANDUNG",Ciroyom,Andir,PT. XL AXIATA,Grha XL Jl. Mega Kuningan Lot. E4-7 No. 1 Kawasan Mega Kuningan Jakarta 12950,-6.914358,107.588308,GF (GreenField),31
1911,CISARANTEN,JL. CISARANTEN KULON NO. 107 RT 04/07 BDG,Cisaranten Kulon,Arcamanik,PT. XL AXIATA,Grha XL Jl. Mega Kuningan Lot. E4-7 No. 1 Kawasan Mega Kuningan Jakarta 12950,-6.93103,107.68,GF (GreenField),30
A957,CISARANTEN-BINA-HARAPAN,JL. CICUKANG NO. 37 RT 01/ RW 09 KEL.BINA HARAPAN KEC ARCAMANIK KOTA BANDUNG,Bina Harapan,Arcamanik,PT. XL AXIATA,Grha XL Jl. Mega Kuningan Lot. E4-7 No. 1 Kawasan Mega Kuningan Jakarta 12950,-6.914194444,107.6812778,GF (GreenField),30
A935,PELINDUNG-HEWAN,"JL. INHOFTANK, KURDI REGENCY NO. 37-38, KEL.PELINDUNG HEWAN, KEC ASTANA ANYAR, KOTA BANDUNG, JAWA BARAT",Pelindung Hewan,Astanaanyar,PT. XL AXIATA,Grha XL Jl. Mega Kuningan Lot. E4-7 No. 1 Kawasan Mega Kuningan Jakarta 12950,-6.941667,107.603442,RT (Roof Top),15
2108,NYENGSERET,"JL. NYENGSERET, GG. BP SUHAYA NO. 1 RT 04, RW 06, KEL.NYENGSERET, KEC ASTANA ANYAR, KOTA BANDUNG, JAWA BARAT",Nyengseret,Astanaanyar,PT. XL AXIATA,Grha XL Jl. Mega Kuningan Lot. E4-7 No. 1 Kawasan Mega Kuningan Jakarta 12950,-6.934667,107.600469,GF (GreenField),30
A925,KARASAK,JL. SOEKARNO. HATTA RT 05/02 KEL.KARASAK KEC ASTANA ANYAR KAB BANDUNG,Karasak,Astanaanyar,PT. XL AXIATA,Grha XL Jl. Mega Kuningan Lot. E4-7 No. 1 Kawasan Mega Kuningan Jakarta 12950,-6.9491,107.6062,GF (GreenField),31
2037,PASIR-KOJA,KK GIAN PLAZA BLOK D JL. TERUSAN PASIR KOJA BLOK 8 KAV.D1 BABAKAN CIPARAY BANDUNG (BUDI 022-6046601 / 6046602),-,Babakan Ciparay,PT. XL AXIATA,Grha XL Jl. Mega Kuningan Lot. E4-7 No. 1 Kawasan Mega Kuningan Jakarta 12950,-6.929889,107.576,RT (Roof Top),20
1905,CIPARAY,JL. PETA NO. 226 RT.06/05 SUKA ASIH,-,-,PT. XL AXIATA,Grha XL Jl. Mega Kuningan Lot. E4-7 No. 1 Kawasan Mega Kuningan Jakarta 12950,-6.930089,107.588,GF (GreenField),30
1910,CIGONDEWAH,"JL. CIGONDEWAH KIDUL NO. 40, BANDUNG",Cigondewah Kidul,Bandung Kulon,PT. XL AXIATA,Grha XL Jl. Mega Kuningan Lot. E4-7 No. 1 Kawasan Mega Kuningan Jakarta 12950,-6.944389,107.561,GF (GreenField),30
1960,CARINGIN,JL. BABAKAN CIPARAY RT01/05 (SAMPING PS INDUK CARINGIN) BDG,Babakan Ciparay,Babakan Ciparay,PT. XL AXIATA,Grha XL Jl. Mega Kuningan Lot. E4-7 No. 1 Kawasan Mega Kuningan Jakarta 12950,-6.94178,107.581,GF (GreenField),30
B158,CIBOLERANG-INDAH,"JL. MARGAJAYA TIMUR III RT 03 RW 06, KEL.MARGAHAYU UTARA, KEC. BABAKAN CIPARAY, KOTA BANDUNG, JAWA BARAT",Margahayu Utara,Babakan Ciparay,PT. XL AXIATA,Grha XL Jl. Mega Kuningan Lot. E4-7 No. 1 Kawasan Mega Kuningan Jakarta 12950,-6.9486,107.5775,GF (GreenField),30
A934,PARALON-CARINGIN,"JL. KAMPUNG HARI KUKUN, CIGONDEWAH KALER, RT.3 RW 7, CIGONDEWAH KOTA BANDUNGJAWA BARAT",Cigondewah Kaler,Bandung Kulon,PT. XL AXIATA,Grha XL Jl. Mega Kuningan Lot. E4-7 No. 1 Kawasan Mega Kuningan Jakarta 12950,-6.93241667,107.5668889,GF (GreenField),30
A945,SITU-GUNTING,"JL BABAKAN CIPARAY (SAMPING NO. 189) RT 01/RW 09, KEL.BABAKAN CIPARAY, KEC BABAKAN CIPARAY, KOTA BANDUNG",Babakan Ciparay,Babakan Ciparay,PT. XL AXIATA,Grha XL Jl. Mega Kuningan Lot. E4-7 No. 1 Kawasan Mega Kuningan Jakarta 12950,-6.936028,107.584167,GF (GreenField),31
1965,KOPO,"JL. KOPO CIRANGRANG TIMUR RT03/02, KEL.CIRARANG, KEC. BABAKAN CIPARAY - BANDUNG.",Cirangrang,Babakan Ciparay,PT. XL AXIATA,Grha XL Jl. Mega Kuningan Lot. E4-7 No. 1 Kawasan Mega Kuningan Jakarta 12950,-6.955358,107.587,GF (GreenField),51
A949,SURYALAYA-TIMUR,"JL SOEKARNO. HATTA, RT 04 RW 01, KEL.BATUNUNGGAL, KEC BANDUNG KIDUL KOTA BANDUNG, JAWA BARAT",Batununggal,Bandung Kidul,PT. XL AXIATA,Grha XL Jl. Mega Kuningan Lot. E4-7 No. 1 Kawasan Mega Kuningan Jakarta 12950,-6.95,107.6238,RT (Roof Top),20
1964,MARGACINTA,JL. BATUNUNGGAL NO. 63A RT01/10 KEL.BATUNUNGGAL KEC.BANDUNG KIDUL,Batununggal,Bandung Kidul,PT. XL AXIATA,Grha XL Jl. Mega Kuningan Lot. E4-7 No. 1 Kawasan Mega Kuningan Jakarta 12950,-6.956728,107.638,GF (GreenField),30
A913,BATU-NUNGGAL,"JL. BATUNUNGGAL INDAH II NO. 70, BANDUNG  JAWA BARAT",-,Batununggal,PT. XL AXIATA,Grha XL Jl. Mega Kuningan Lot. E4-7 No. 1 Kawasan Mega Kuningan Jakarta 12950,-6.962608,107.626056,GF (GreenField),31
A919,CIJERAH,"JL. RAYA JEND SUDIRMAN NO. 801 RT 06 RW 06, KEL.CIJERAH, KEC BANDUNG KULON, KOTA BANDUNG, JAWA BARAT",Cijerah,Bandung Kulon,PT. XL AXIATA,Grha XL Jl. Mega Kuningan Lot. E4-7 No. 1 Kawasan Mega Kuningan Jakarta 12950,-6.913656667,107.57085,GF (GreenField),30
A915,BUMI-ASRI-MARGAASIH,"KP RENGGAS RT 04 RW 06, KEL.GEMPOL SARI, KEC BANDUNG KULON, KOTA BANDUNG, JAWA BARAT",Gempol Sari,Bandung Kulon,PT. XL AXIATA,Grha XL Jl. Mega Kuningan Lot. E4-7 No. 1 Kawasan Mega Kuningan Jakarta 12950,-6.93027778,107.5497222,GF (GreenField),30
A936,PERUMNAS_CIJERAH,"KOMP MEKAR INDAH JL MEKAR ASIH AF 9 NO. 9, KEL.CIJERAH, KEC BANDUNG KULON, KOTA BANDUNG, JAWA BARA",Cijerah,Bandung Kulon,PT. XL AXIATA,Grha XL Jl. Mega Kuningan Lot. E4-7 No. 1 Kawasan Mega Kuningan Jakarta 12950,-6.92311111,107.565,GF (GreenField),30
1986,MARTADINATA,JL. MERDEKA NO. 62A BANDUNG,-,-,PT. XL AXIATA,Grha XL Jl. Mega Kuningan Lot. E4-7 No. 1 Kawasan Mega Kuningan Jakarta 12950,-6.90783,107.611,RT (Roof Top),15
Kantor Bdg,KANTOR-BDG,"JL. LLRE. MARTADINATHA NO. 7, BANDUNG",-,-,PT. XL AXIATA,Grha XL Jl. Mega Kuningan Lot. E4-7 No. 1 Kawasan Mega Kuningan Jakarta 12950,-6.906254302542885,107.60855197906494,GF (GreenField),50
2036,KEBON-WARU,"JL. JAKARTA NO. 73 BANDUNG RT05/03 KEL.KEBON WARU, KEC.BATUNUNGGAL-BANDUNG",Kebon Waru,Batununggal,PT. XL AXIATA,Grha XL Jl. Mega Kuningan Lot. E4-7 No. 1 Kawasan Mega Kuningan Jakarta 12950,-6.91316,107.64232,RT (Roof Top),15
A924,JEMBATAN-EMPAT,JL LASWI NO. 53-55 KEL.CIBANGGONG KEC BATU NUNGGAL BANDUNG,Cibangkong,Batununggal,PT. XL AXIATA,Grha XL Jl. Mega Kuningan Lot. E4-7 No. 1 Kawasan Mega Kuningan Jakarta 12950,-6.92197222,107.6310833,RT (Roof Top),20
A914,BINONGJATI,"JL. GUMURUH NO. 87 RT 01 RW 06 KEL.GUMURUH, KEC BATUNUNGGAL, KOTA BANDUNG JAWA BARAT",Gumuruh,Batununggal,PT. XL AXIATA,Grha XL Jl. Mega Kuningan Lot. E4-7 No. 1 Kawasan Mega Kuningan Jakarta 12950,-6.93388889,107.6380556,GF (GreenField),30
A923,JATIMULYA-GUMURUH,"COLOCATED WITH INDONESIAN TOWER LAP SMK PRAKARYA JL. RAYA MATRI KALER NO. 25, SDN PUTRACO INDAH RT 14/04 KEL.TURANGGA KEC LENGKONG, KOTA BANDUNG",Turangga,Lengkong,PT. XL AXIATA,Grha XL Jl. Mega Kuningan Lot. E4-7 No. 1 Kawasan Mega Kuningan Jakarta 12950,-6.9426,107.63646,GF (GreenField),31
2101,JAMIKA,JL. JAMIKA NO. 96 RT.05/07 KEL.JAMIKA KEC. BOJONG LOA KALER - BANDUNG (022-6040246),Jamika,Bojongloa Kaler,PT. XL AXIATA,Grha XL Jl. Mega Kuningan Lot. E4-7 No. 1 Kawasan Mega Kuningan Jakarta 12950,-6.922861111,107.5855278,RT (Roof Top),15
1925,LEUWI-PANJANG,JL. KOMPLEKS MUARA DEPAN NO. 2,-,-,PT. XL AXIATA,Grha XL Jl. Mega Kuningan Lot. E4-7 No. 1 Kawasan Mega Kuningan Jakarta 12950,-6.94192,107.597,GF (GreenField),30
2105,TAMAN-KOPO,JL. PETA LINGKAR SELATAN BLOK BABAKAN TAROGONG RT 01/03 KEL.SUKA ASIH KEC. BOJONG LOA KALER KOTA BANDUNG JAWA BARAT,Sukaasih,Bojongloa Kaler,PT. XL AXIATA,Grha XL Jl. Mega Kuningan Lot. E4-7 No. 1 Kawasan Mega Kuningan Jakarta 12950,-6.9345,107.59225,GF (GreenField),30
A920,CITARIP,"JL RAYA WAHID HASYIM (KOPO), KEL.CITARIP KEC KOPO KOTA BANDUNG",Citarip,Bojongloa Kaler,PT. XL AXIATA,Grha XL Jl. Mega Kuningan Lot. E4-7 No. 1 Kawasan Mega Kuningan Jakarta 12950,-6.941747,107.590167,GF (GreenField),30
A916,CIBADUYUT,JL. SUKARNO. HATTA NO. 162 KEL.KEBON LEGA KEC BOUJONGLOA KIDUL-BANDUNG,Kebon Lega,Bojongloa Kidul,PT. XL AXIATA,Grha XL Jl. Mega Kuningan Lot. E4-7 No. 1 Kawasan Mega Kuningan Jakarta 12950,-6.948222222,107.5978611,RT (Roof Top),15
A930,MEKARWANGI,"BLOK ANGGACARANG RT 01 RW 004 KEL.CIBADUYUT WETAN KEC BOJONGLOA KIDUL, KOTA BANDUNG, JAWA BARAT",Cibaduyut Wetan,Bojongloa Kidul,PT. XL AXIATA,Grha XL Jl. Mega Kuningan Lot. E4-7 No. 1 Kawasan Mega Kuningan Jakarta 12950,-6.957108,107.603058,GF (GreenField),30
1902,CIBEUNYING,JL. CIKUTRA XI NO. 40 KEL.NEGLASARI RT.03/06 KEL.CIBEUNYING BANDUNG,Neglasari,Cibeunying Kaler,PT. XL AXIATA,Grha XL Jl. Mega Kuningan Lot. E4-7 No. 1 Kawasan Mega Kuningan Jakarta 12950,-6.89699,107.63778,GF (GreenField),30
2106,CILIWUNG,"JL. SUPRATMAN NO. 90 RT.05/RW.11, KEL.CIHAURGEULIS,KEC.CIBEUNYING KALER, KOTA BANDUNG, JAWA BARAT",Cihaurgeulis,Cibeunying Kaler,PT. XL AXIATA,Grha XL Jl. Mega Kuningan Lot. E4-7 No. 1 Kawasan Mega Kuningan Jakarta 12950,-6.90275,107.6276111,GF (GreenField),30
A969,BOJONG_KONENG,"JL. TUGU ASRI I NO. B8 RT05 RW013 KEL.PASIR LAYUNG, KEC CIBEUNYING KIDUL, KOTA BANDUNG, JAWA BARAT",Pasir Layung,Cibeunying Kidul,PT. XL AXIATA,Grha XL Jl. Mega Kuningan Lot. E4-7 No. 1 Kawasan Mega Kuningan Jakarta 12950,-6.8945,107.6517222,GF (GreenField),30
A997,BUKIT-CITRA-BARU,"KAMPUNG CIKUDA RT 01 RW 11, KEL.PASIR BIRU KEC CIBIRU KAB BANDUNG",Pasir Biru,Cibiru,PT. XL AXIATA,Grha XL Jl. Mega Kuningan Lot. E4-7 No. 1 Kawasan Mega Kuningan Jakarta 12950,-6.921666667,107.7241667,GF (GreenField),30
A955,BUMI-PANYILEUKAN,"JL. PANYILEUKAN V RT.02/RW.13, KEL.CIPADUNG, KEC. CIBIRU, BANDUNG",Cipadung,Cibiru,PT. XL AXIATA,Grha XL Jl. Mega Kuningan Lot. E4-7 No. 1 Kawasan Mega Kuningan Jakarta 12950,-6.944917,107.708306,GF (GreenField),30
A996,PANGARITAN-CIPADUNG,JL. GEMPOL NO. 2 KEC CIBIRU KEL.CIPADUNG KULON KOTA BANDUNG,Cipadung,Cibiru,PT. XL AXIATA,Grha XL Jl. Mega Kuningan Lot. E4-7 No. 1 Kawasan Mega Kuningan Jakarta 12950,-6.9305,107.7050556,GF (GreenField),31
1963,CIBIRU,"JL. CIPADUNG (BUNDERAN) TR 03/10 NO. 159, KEL.CIPADUNG, KEC CIBIRU",Cipadung,Cibiru,PT. XL AXIATA,Grha XL Jl. Mega Kuningan Lot. E4-7 No. 1 Kawasan Mega Kuningan Jakarta 12950,-6.93475,107.718,GF (GreenField),50
2034,PADASUKA,JL. JENDRAL AHMAD YANI NO. 804 RT01/05 CICAHEUM BANDUNG 022-7104103,-,-,PT. XL AXIATA,Grha XL Jl. Mega Kuningan Lot. E4-7 No. 1 Kawasan Mega Kuningan Jakarta 12950,-6.90214,107.654,RT (Roof Top),15
1921,ANTAPANI,JL. DEPOK NO. 16A ANTAPANI,Antapani Tengah,Antapani,PT. XL AXIATA,Grha XL Jl. Mega Kuningan Lot. E4-7 No. 1 Kawasan Mega Kuningan Jakarta 12950,-6.9147,107.657,GF (GreenField),30
1982,PASIR-IMPUN,"JL. PASIR IMPUN BARAT RT04/05 NO. 35 KEL.KARANG PAMULANG, CICADAS-BANDUNG",Karang Pamulang,Mandalajati,PT. XL AXIATA,Grha XL Jl. Mega Kuningan Lot. E4-7 No. 1 Kawasan Mega Kuningan Jakarta 12950,-6.90283,107.675,GF (GreenField),30
1923,CIKADUT-BANDUNG,"JL. CISANGGARUNG, KP. BABAKAN BARU RT 03 RW 13, KEL.KARANG PAMULANG, KEC. CICADAS, KOTA BANDUNG, JAWA BARAT",Karang Pamulang,Mandalajati,PT. XL AXIATA,Grha XL Jl. Mega Kuningan Lot. E4-7 No. 1 Kawasan Mega Kuningan Jakarta 12950,-6.890639,107.6815,GF (GreenField),30
1978,ANTAPANI-KIDUL,"JL. CIBODAS RAYA BELAKANG NO. 27 C RT.08 RW.15 KEL.ANTAPANI KIDUL KEC. CICADAS, BANDUNG",Antapani Kidul,Antapani,PT. XL AXIATA,Grha XL Jl. Mega Kuningan Lot. E4-7 No. 1 Kawasan Mega Kuningan Jakarta 12950,-6.924556,107.664667,GF (GreenField),30
1961,HUSEIN,KOMP. AURI BANDARA HUSEIN JL. PADJADJARAN - BDG,-,-,PT. XL AXIATA,Grha XL Jl. Mega Kuningan Lot. E4-7 No. 1 Kawasan Mega Kuningan Jakarta 12950,-6.90331,107.572,GF (GreenField),30
2076,ABD.-RAHMAN-SALEH-SUPADIO,"SMA_SMK ANGKS (LANUDHUSEINSASTRANGRA),JL. L.M.U.SUPADIONO. 22, LANUD HUSEIN SASTRA NEGARA - BANDUNG",-,-,PT. XL AXIATA,Grha XL Jl. Mega Kuningan Lot. E4-7 No. 1 Kawasan Mega Kuningan Jakarta 12950,-6.906469,107.583078,GF (GreenField),30
2031,PAJAJARAN,STADION PAJAJARAN (KONI JAWABARAT) JL. PAJAJARAN NO. 37A BANDUNG - JAWA BARAT,-,-,PT. XL AXIATA,Grha XL Jl. Mega Kuningan Lot. E4-7 No. 1 Kawasan Mega Kuningan Jakarta 12950,-6.9073,107.6013,GF (GreenField),50
1981,DAGO-GOLF,PLAN LAPANGAN GOLF DAGO ATAS NO. 78 BANDUNG,Dago,Coblong,PT. XL AXIATA,Grha XL Jl. Mega Kuningan Lot. E4-7 No. 1 Kawasan Mega Kuningan Jakarta 12950,-6.86863889,107.6240556,GF (GreenField),30
A968,CIUMBULEUIT--ATAS,"JL. KAMPUNG CIHANJAH NO. 45 RT 02 RW 10, KEL.CIUMBULEUIT, KEC CIDADAP, KOTA BANDUNG",Ciumbuleuit,Cidadap,PT. XL AXIATA,Grha XL Jl. Mega Kuningan Lot. E4-7 No. 1 Kawasan Mega Kuningan Jakarta 12950,-6.85525,107.6117778,GF (GreenField),31
1908,CIDADAP,"JL. SETIABUDI KM 10 POLSEKTA CIDADAP, BANDUNG TENGAH",-,-,PT. XL AXIATA,Grha XL Jl. Mega Kuningan Lot. E4-7 No. 1 Kawasan Mega Kuningan Jakarta 12950,-6.847,107.599,GF (GreenField),50
1962,CIUMBULEUIT,"JL. CIUMBULEUIT 179, RT. 01 RW. 07, KEL.CIUMBELUUIT, KEC. CIDADAP, KOTA BANDUNG",Ciumbuleuit,Cidadap,PT. XL AXIATA,Grha XL Jl. Mega Kuningan Lot. E4-7 No. 1 Kawasan Mega Kuningan Jakarta 12950,-6.87089,107.605,GF (GreenField),50
2033,JUANDA-ITB,JL. GANECA 7 BDG,-,-,PT. XL AXIATA,Grha XL Jl. Mega Kuningan Lot. E4-7 No. 1 Kawasan Mega Kuningan Jakarta 12950,-6.89422222,107.6096944,RT (Roof Top),15
1979,JUANDASURAPATI,JL. DIPATI UKUR NO. 26 RT 04/RW 08 KEL.LEBAK GEDE KEC. COBLONG BANDUNG,Lebak Gede,Coblong,PT. XL AXIATA,Grha XL Jl. Mega Kuningan Lot. E4-7 No. 1 Kawasan Mega Kuningan Jakarta 12950,-6.89722222,107.6157222,RT (Roof Top),20
EJ84,NALENDRA-BANDUNG,HOTEL NALENDRA JL. CIHAMPELAS NO. 225 - 229 RT.6/02 KEL.CIPAGANTI KC.COBLONG KOTA BANDUNG,Cipaganti,Coblong,PT. XL AXIATA,Grha XL Jl. Mega Kuningan Lot. E4-7 No. 1 Kawasan Mega Kuningan Jakarta 12950,-6.8855,107.6041917,RT (Roof Top),31
1901,SILIWANGI,"JL. CIHEULANG BARU NO. 35, BANDUNG",-,-,PT. XL AXIATA,Grha XL Jl. Mega Kuningan Lot. E4-7 No. 1 Kawasan Mega Kuningan Jakarta 12950,-6.88636,107.619,GF (GreenField),70
1922,GEDEBAGE,JL. CIDURIAN BARU NO. 17A,-,-,PT. XL AXIATA,Grha XL Jl. Mega Kuningan Lot. E4-7 No. 1 Kawasan Mega Kuningan Jakarta 12950,-6.9405,107.655,GF (GreenField),30
A937,PINDAD-BANDUNG,"JL. TERUSAN PSM RT 07 RW 06, KEL.SUKAPURA, KEC KIARACONDONG, KOTA BANDUNGJAWA BARAT",Sukapura,Kiaracondong,PT. XL AXIATA,Grha XL Jl. Mega Kuningan Lot. E4-7 No. 1 Kawasan Mega Kuningan Jakarta 12950,-6.930916667,107.6530278,GF (GreenField),31
1924,HUT-KIARA-CONDONG,BALAI JASA KOMP.STASIUN KA KIARACONDONG JL. KIARA CONDONG BANDUNG,-,Kiaracondong,PT. XL AXIATA,Grha XL Jl. Mega Kuningan Lot. E4-7 No. 1 Kawasan Mega Kuningan Jakarta 12950,0.0,0.0,GF (GreenField),50
1949,SIMPANG-KARAPITAN,JL. ACHMAD YANI NO. 10-12 BANDUNG,-,-,PT. XL AXIATA,Grha XL Jl. Mega Kuningan Lot. E4-7 No. 1 Kawasan Mega Kuningan Jakarta 12950,-6.9221,107.618,RT (Roof Top),12
1903,LENGKONG,"SURYA TJONG BUILDING, JL. GATOT SUBROTO NO. 245, BDG",-,-,PT. XL AXIATA,Grha XL Jl. Mega Kuningan Lot. E4-7 No. 1 Kawasan Mega Kuningan Jakarta 12950,-6.92617,107.633,RT (Roof Top),15
1929,BUAH-BATU,JL. KLININGAN ASRI NO. 2 RT02/05 KEL.TURANGGA KEC.LENGKONG BDG,Turangga,Lengkong,PT. XL AXIATA,Grha XL Jl. Mega Kuningan Lot. E4-7 No. 1 Kawasan Mega Kuningan Jakarta 12950,-6.94244,107.628,GF (GreenField),30
1945,TLGBODAS/BURANGRANG,JL. BURANGRANG DALAM NO. 45,-,-,PT. XL AXIATA,Grha XL Jl. Mega Kuningan Lot. E4-7 No. 1 Kawasan Mega Kuningan Jakarta 12950,-6.92764,107.619,GF (GreenField),30
A927,KOMPLEK-POSTEL-BUBAT,JL. WESEL RT 06/RW 06 KOMP. POS DAN TELEKOMUNIKASI BUAHBATU - BANDUNG,-,Buahbatu,PT. XL AXIATA,Grha XL Jl. Mega Kuningan Lot. E4-7 No. 1 Kawasan Mega Kuningan Jakarta 12950,-6.94011111,107.6217778,GF (GreenField),30
2077,DALEM-KAUM-BDG,"JL DALEM KAUM NO. 130A, RT 005 RW 009, KEL.CIKAWAO, KEC LENGKONG, KOTA BANDUNG JAWA BARAT",Cikawao,Lengkong,PT. XL AXIATA,Grha XL Jl. Mega Kuningan Lot. E4-7 No. 1 Kawasan Mega Kuningan Jakarta 12950,-6.92336111,107.6105278,GF (GreenField),30
A929,MARGASENANG,"JL KENCANA WANGI UTARA I NO. 1 RT RW 17 KEL.MARGASENANG, KEC MARGACINTA, BANDUNG",Margasenang,Buahbatu,PT. XL AXIATA,Grha XL Jl. Mega Kuningan Lot. E4-7 No. 1 Kawasan Mega Kuningan Jakarta 12950,-6.950472222,107.6522472,GF (GreenField),30
A918,CIDURIAN-SELATAN,JL CIPAGALO GIRANG RT 02 RW 03 KEL.MARGASARI KEC MARGACINTA BANDUNG,Margasari,Buahbatu,PT. XL AXIATA,Grha XL Jl. Mega Kuningan Lot. E4-7 No. 1 Kawasan Mega Kuningan Jakarta 12950,-6.950166667,107.6476111,GF (GreenField),30
A926,KIARASARI-BANDUNG,JL. TERUSAN KIARACONDONG NO. 13 RT 04/RW 01 KEL.SEKEJATI KEC MARGA CINTA KOTA BANDUNG,Sekejati,Buahbatu,PT. XL AXIATA,Grha XL Jl. Mega Kuningan Lot. E4-7 No. 1 Kawasan Mega Kuningan Jakarta 12950,-6.94761111,107.6420833,GF (GreenField),31
A950,GEDEBAGE-BANDUNG,"JL RAYA GEDEBAGE KEL.CISARANTEN KIDUL, KEC RANCASARI BANDUNG",Cisaranten Kidul,Gedebage,PT. XL AXIATA,Grha XL Jl. Mega Kuningan Lot. E4-7 No. 1 Kawasan Mega Kuningan Jakarta 12950,-6.9478,107.6886,GF (GreenField),30
A992,CISARANTEN-WETAN,"JL SOEKARNO. HATTA NO. 825 KEL.MEKAR MULIA, KEC RANCA SARI, KOTA BANDUNG, JAWA BARAT",Mekarmulya,Panyileukan,PT. XL AXIATA,Grha XL Jl. Mega Kuningan Lot. E4-7 No. 1 Kawasan Mega Kuningan Jakarta 12950,-6.93608333,107.6970833,GF (GreenField),30
1984,MARGAHAYU,JL. RANCA CILI KEL.DERWATI KEC. RANCASARI BANDUNG,Derwati,Rancasari,PT. XL AXIATA,Grha XL Jl. Mega Kuningan Lot. E4-7 No. 1 Kawasan Mega Kuningan Jakarta 12950,-6.95842,107.678,GF (GreenField),70
A912,ARIA-GRAHA-BYPASS,"JL. PARAKANSAAT RT 01 RW 01 KEL.CIPAMOKOLAN, KEC RANCASARI KOTA BANDUNG, JAWA BARAT",Cipamokolan,Rancasari,PT. XL AXIATA,Grha XL Jl. Mega Kuningan Lot. E4-7 No. 1 Kawasan Mega Kuningan Jakarta 12950,-6.939361111,107.6723333,GF (GreenField),70
1946,PUNGKUR,JL. OTO ISKANDAR DINATA NO. 419 KEL.PUNGKUR KEC.REGOL BANDUNG,Pungkur,Regol,PT. XL AXIATA,Grha XL Jl. Mega Kuningan Lot. E4-7 No. 1 Kawasan Mega Kuningan Jakarta 12950,-6.9286,107.604,RT (Roof Top),15
1904,REGOL,JL. KEMBAR TENGAH IV AND JL. H. AKSAM,-,-,PT. XL AXIATA,Grha XL Jl. Mega Kuningan Lot. E4-7 No. 1 Kawasan Mega Kuningan Jakarta 12950,-6.941389,107.611,GF (GreenField),30
1997,PASIR-KALIKI,JL. SUKAJADI (FUJI IMAGE PLAZA) CIBARENGKOK-BANDUNG,-,-,PT. XL AXIATA,Grha XL Jl. Mega Kuningan Lot. E4-7 No. 1 Kawasan Mega Kuningan Jakarta 12950,-6.89552,107.59591,RT (Roof Top),15
1988,SETIABUDI,"JL. SETIABUDI NO. 170A, CIDADAP HEGARMANAH BANDUNG",-,-,PT. XL AXIATA,Grha XL Jl. Mega Kuningan Lot. E4-7 No. 1 Kawasan Mega Kuningan Jakarta 12950,-6.87259,107.595,RT (Roof Top),15
1928,SUKAJADI,HOTEL SUKAJADI JL. SUKAJADI NO. 174-176 BANDUNG,-,-,PT. XL AXIATA,Grha XL Jl. Mega Kuningan Lot. E4-7 No. 1 Kawasan Mega Kuningan Jakarta 12950,-6.88547,107.597,RT (Roof Top),15
1907,SUKASARI,RADIO OZ JL. SETRA SARI 2 NO. 14,-,-,PT. XL AXIATA,Grha XL Jl. Mega Kuningan Lot. E4-7 No. 1 Kawasan Mega Kuningan Jakarta 12950,-6.875833333,107.58799,GF (GreenField),30
A947,SUKASARI,JL SARI ASIH IV NO. 16 KAMP CIJEROKASO RT 07/RW 10 KEL.SARIJADI KEC SUKASARI KOTA BANDUNG,Sarijadi,Sukasari,PT. XL AXIATA,Grha XL Jl. Mega Kuningan Lot. E4-7 No. 1 Kawasan Mega Kuningan Jakarta 12950,-6.87408333,107.57625,GF (GreenField),30
1912,POLWILTABES,"POLWILTABES BANDUNG, JL. MERDEKA BANDUNG",-,-,PT. XL AXIATA,Grha XL Jl. Mega Kuningan Lot. E4-7 No. 1 Kawasan Mega Kuningan Jakarta 12950,-6.91417,107.612,GF (GreenField),30
1944,KEMUNING,BANK BUKOPIN OFFICE JL. R.E MARTADINATA NO. 142,-,-,PT. XL AXIATA,Grha XL Jl. Mega Kuningan Lot. E4-7 No. 1 Kawasan Mega Kuningan Jakarta 12950,-6.912278,107.628,GF (GreenField),30
2107,ERMAWAR,JL. MENADO NO. 8 BANDUNG,-,-,PT. XL AXIATA,Grha XL Jl. Mega Kuningan Lot. E4-7 No. 1 Kawasan Mega Kuningan Jakarta 12950,-6.912528,107.620417,GF (GreenField),30
2141,SINDANG-JAYA,"PUSLITBANG PRASARANA TRANSPORTASI< JL AH NASUTION (RAYA TIMUR) NO. 264 UJUNG BERUNG KOTA BANDUNG, PROP JAWA BARAT",-,Ujungberung,PT. XL AXIATA,Grha XL Jl. Mega Kuningan Lot. E4-7 No. 1 Kawasan Mega Kuningan Jakarta 12950,-6.90775,107.6866389,GF (GreenField),30
A953,ARCAMANIK,"JL. PURI AYU II ARCAMANIK,KEL.SUKAMISKIN,KEC.ARCAMANIK KOTA BANDUNG - JAWA BARAT",Sukamiskin,Arcamanik,PT. XL AXIATA,Grha XL Jl. Mega Kuningan Lot. E4-7 No. 1 Kawasan Mega Kuningan Jakarta 12950,-6.92233,107.67603,GF (GreenField),30
A960,PANGEHGAR-PERMAI,"JL. RUMAH SAKIT , KAMP CINAMBO RT.05/08 KEL.UJUNG BERUNG KEC. UJUNG BERUNG BANDUNG",Ujungberung,Ujungberung,PT. XL AXIATA,Grha XL Jl. Mega Kuningan Lot. E4-7 No. 1 Kawasan Mega Kuningan Jakarta 12950,-6.92225,107.6974444,GF (GreenField),30
A942,SENAM-INDAH-SUKAMISKIN,"JL TERUSAN JAKARTA NO. 280 KEL.SUKAMISKIN, ARCAMANIK, BANDUNG JAWA BARAT",Sukamiskin,Arcamanik,PT. XL AXIATA,Grha XL Jl. Mega Kuningan Lot. E4-7 No. 1 Kawasan Mega Kuningan Jakarta 12950,-6.9156,107.6675,GF (GreenField),30
1919,UJUNG-BERUNG,GG. KALIMAS / KAUM KIDUL RT02/04 UJUNG BERUNG,-,Ujungberung,PT. XL AXIATA,Grha XL Jl. Mega Kuningan Lot. E4-7 No. 1 Kawasan Mega Kuningan Jakarta 12950,-6.91483,107.701,GF (GreenField),50
JBCH008,CIBABAT,JL. BUNISUGIH RT. 03 RW. 04 KEL.SUKARAJA KEC. CICENDO KOTA BANDUNG,Sukaraja,Cicendo,PT. XL AXIATA,Grha XL Jl. Mega Kuningan Lot. E4-7 No. 1 Kawasan Mega Kuningan Jakarta 12950,-6.88904,107.5584,GF (GreenField),32
JBKB059,MEKAR-MULYA,"JL. SOEKARNO. HATTA KM. 13,8 ESTATE B-17 KEL.CISARANTEN WETAN KEC. RANCASARI KOTA BANDUNG",Cisaranten Wetan,Cinambo,PT. XL AXIATA,Grha XL Jl. Mega Kuningan Lot. E4-7 No. 1 Kawasan Mega Kuningan Jakarta 12950,-6.9355,107.6995,GF (GreenField),36
JBKB084,BANDARA-HUSEIN,JL. BOING KOMPLEK TNI AU SUKARAJA KOTA BANDUNG,-,-,PT. XL AXIATA,Grha XL Jl. Mega Kuningan Lot. E4-7 No. 1 Kawasan Mega Kuningan Jakarta 12950,-6.89499,107.57306,GF (GreenField),36
JBKB027,SEMPURNA,"AJENDAM III SILIWANGI
JL. BOSCHA NO. 4 KEL.PASTEUR KEC. SUKAJADI",Pasteur,Sukajadi,PT. XL AXIATA,Grha XL Jl. Mega Kuningan Lot. E4-7 No. 1 Kawasan Mega Kuningan Jakarta 12950,-6.89057,107.60092,GF (GreenField),36
JBKB040,CIMBEULEUIT-/-GN-KENCANA,JL. CIUMBULEUIT NO. 179 RT.01/RW 07 KEL.CIUMBULEUIT KEC CIDADAP KOTA BANDUNG,Ciumbuleuit,Cidadap,PT. XL AXIATA,Grha XL Jl. Mega Kuningan Lot. E4-7 No. 1 Kawasan Mega Kuningan Jakarta 12950,-6.87053,107.60541,GF (GreenField),36
JBKB023,SANINTEN-/-PUSSENIF,JL. SUPRATMAN NO. 60,-,-,PT. XL AXIATA,Grha XL Jl. Mega Kuningan Lot. E4-7 No. 1 Kawasan Mega Kuningan Jakarta 12950,-6.90558,107.63112,GF (GreenField),36
JBKB015,PUSKOPAD-AD,JL. KALIMANTAN NO. 12 KEL.SUMUR BANDUNG KEC. MERDEKA BANDUNG,Merdeka,Sumur Bandung,PT. XL AXIATA,Grha XL Jl. Mega Kuningan Lot. E4-7 No. 1 Kawasan Mega Kuningan Jakarta 12950,-6.91337,107.6156,GF (GreenField),36
JBKB024,HASAN-SADIKIN,"JL. PASIR KALIKI (HOS COKRO AMINO. TO) NO. 237 RT. 002/011 KEL.SUKABUNGA, SUKAJADI BANDUNG 40162",Sukabungah,Sukajadi,PT. XL AXIATA,Grha XL Jl. Mega Kuningan Lot. E4-7 No. 1 Kawasan Mega Kuningan Jakarta 12950,-6.897327,107.597103,GF (GreenField),36
JBBD046,GEGERKALONG,JL. GEGER KALONG GIRANG RT. 05 RW. 06 KEL.ISOLA KEC SUKASARI KOTA BANDUNG,Isola,Sukasari,PT. XL AXIATA,Grha XL Jl. Mega Kuningan Lot. E4-7 No. 1 Kawasan Mega Kuningan Jakarta 12950,-6.86205,107.58442,GF (GreenField),36
JBKB087,UPI,JL. KAPT. ABDUL HAMID NO. 145 RT 003 RW 01 KEL.LEDENG KEC. CIDADAP KOTA BANDUNG,Ledeng,Cidadap,PT. XL AXIATA,Grha XL Jl. Mega Kuningan Lot. E4-7 No. 1 Kawasan Mega Kuningan Jakarta 12950,-6.8661,107.59703,GF (GreenField),36
JBKB006,CIBADAK,"JL. CIBADAK, GG. NYI EMPOK NO. 1 - BANDUNG",-,-,PT. XL AXIATA,Grha XL Jl. Mega Kuningan Lot. E4-7 No. 1 Kawasan Mega Kuningan Jakarta 12950,-6.92174,107.59381,GF (GreenField),36
JBKB008,PASIR-KOJA,JL. TERUSAN PASIR KOJA 195 KOTA BANDUNG,-,-,PT. XL AXIATA,Grha XL Jl. Mega Kuningan Lot. E4-7 No. 1 Kawasan Mega Kuningan Jakarta 12950,-6.92616,107.58829,GF (GreenField),36
JBBD022,MENGGER,JL. TERS. SURATMI KAMPUNG MENGGER RT. 03/02 KEL.MENGGER KEC. BANDUNG KIDUL KAB. BANDUNG (40287).,Mengger,Bandung Kidul,PT. XL AXIATA,Grha XL Jl. Mega Kuningan Lot. E4-7 No. 1 Kawasan Mega Kuningan Jakarta 12950,-6.95706,107.62264,GF (GreenField),42
JBBD011,CIBOLERANG,JL. CIBOLERANG BARAT RT.04 RW.01 KEL.CIGONDEWAH RAHAYU KEC. BANDUNG KULON KOTA BANDUNG,Cigondewah Rahayu,Bandung Kulon,PT. XL AXIATA,Grha XL Jl. Mega Kuningan Lot. E4-7 No. 1 Kawasan Mega Kuningan Jakarta 12950,-6.951256,107.56596,GF (GreenField),42
JBKB057,KOMPLEKS-ANGKASA-MEKAR,JL. CIPARAY TENGAH NO. 1 RT.05 RW.01 KEL.CIBADUYUT KIDUL KEC. BOJONGLOA KIDUL KOTA BANDUNG,Cibaduyut Kidul,Bojongloa Kidul,PT. XL AXIATA,Grha XL Jl. Mega Kuningan Lot. E4-7 No. 1 Kawasan Mega Kuningan Jakarta 12950,-6.96207,107.59291,GF (GreenField),42
JBBD030,PASIR-LAYUNG,JL. PADASUKA GG.DONGDAK RT.05 RW.01 KEL.PASIR LAYUNG KEC.CIBEUNYING KOTA BANDUNG,Pasir Layung,Cibeunying Kidul,PT. XL AXIATA,Grha XL Jl. Mega Kuningan Lot. E4-7 No. 1 Kawasan Mega Kuningan Jakarta 12950,-6.88764,107.66123,GF (GreenField),42
JBBD010,GEMPOL-ASRI,JL. JATI GEMPOL SARI RT.07 RW.09 KEL.GEMPOL SARI KEC. BANDUNG KULON KOTA BANDUNG,Gempol Sari,Bandung Kulon,PT. XL AXIATA,Grha XL Jl. Mega Kuningan Lot. E4-7 No. 1 Kawasan Mega Kuningan Jakarta 12950,-6.93449,107.55415,GF (GreenField),42
JBKB061,GEDE-BAGE,JL. GEDE BAGE SELATAN NO. 167 KEL.RANCA BOLANG KEC. GEDE BAGE KAB. BANDUNG,Ranca Bolang,Gedebage,PT. XL AXIATA,Grha XL Jl. Mega Kuningan Lot. E4-7 No. 1 Kawasan Mega Kuningan Jakarta 12950,-6.95372,107.68692,GF (GreenField),42
JBKB041,DELTA,JL. RANCA KENDAL  I B  KEL.CIGADUNG KEC. CIBEUNYING  BANDUNG,Cigadung,Cibeunying Kaler,PT. XL AXIATA,Grha XL Jl. Mega Kuningan Lot. E4-7 No. 1 Kawasan Mega Kuningan Jakarta 12950,-6.87574,107.62793,GF (GreenField),42
JBKB080,PASIR-IMPUN,"JL. PASIR IMPUN RT01/RW12,DS. KARANG PAMULANG, KEC, CICADAS,BANDUNG, JAWA BARAT",Karang Pamulang,Mandalajati,PT. XL AXIATA,Grha XL Jl. Mega Kuningan Lot. E4-7 No. 1 Kawasan Mega Kuningan Jakarta 12950,-6.89659,107.67617,GF (GreenField),42
JBBD019,CIGIRINGSING,"CIGIRINGSING WETAN RT 01 RW 19 DESA GIRI MEKAR, CILENGKRANG",Giri Mekar,-,PT. XL AXIATA,Grha XL Jl. Mega Kuningan Lot. E4-7 No. 1 Kawasan Mega Kuningan Jakarta 12950,-6.897611,107.692194,GF (GreenField),42
JBKB045,CISARANTEN-WETAN,"JL. GOLF UJUNG BERUNG CISARANTEN WETAN, KEL.CISARANTEN WETAN, KEC.CINAMBO KOTA BANDUNG 40293",Cisaranten Wetan,Cinambo,PT. XL AXIATA,Grha XL Jl. Mega Kuningan Lot. E4-7 No. 1 Kawasan Mega Kuningan Jakarta 12950,-6.92155,107.68783,GF (GreenField),42
JBKB068,MEKAR-WANGI,JL. PASIR MUNCANG DAGO ATAS RT 02/08 DESA MEKAR WANGI KEC. LEMBANG KAB. BANDUNG (40135).,Mekarwangi,Bojongloa Kidul,PT. XL AXIATA,Grha XL Jl. Mega Kuningan Lot. E4-7 No. 1 Kawasan Mega Kuningan Jakarta 12950,-6.85392,107.62395,GF (GreenField),42
JBKB077,NEGLASARI,"JL. PALEDANG III RT 04 RW 06, KEL.PASSANGGRAHAN, KEC. UJUNG BERUNG BANDUNG 40617",Pasanggrahan,Ujungberung,PT. XL AXIATA,Grha XL Jl. Mega Kuningan Lot. E4-7 No. 1 Kawasan Mega Kuningan Jakarta 12950,-6.9118,107.7119,GF (GreenField),42
JBKB051,MARGA-SENANG,JL. CIWASTRA RT. 04 RW. 01 KEL.MARGASENANG KEC. MARGACINTA KOTA BANDUNG,Margasenang,Buahbatu,PT. XL AXIATA,Grha XL Jl. Mega Kuningan Lot. E4-7 No. 1 Kawasan Mega Kuningan Jakarta 12950,-6.95865,107.65773,GF (GreenField),42
JBKB072,BATURADEN,PERUM PASIR POGOR JL. BANYU BIRU BLOK A RT 002 RW 010 KEL.MARGASENANG KEC.RANCASARI KOTA BANDUNG,Margasenang,Rancasari,PT. XL AXIATA,Grha XL Jl. Mega Kuningan Lot. E4-7 No. 1 Kawasan Mega Kuningan Jakarta 12950,-6.96413,107.6656,GF (GreenField),42
